[{"index":0,"Itinerary":[[1.2931,103.852],"Merlion Park","Little India","Fifth Season's Tangra Chinese","Fifth Season's Kolkata Beckons"],"POICategories":[["NA","NA","NA"],["nonfood","Parks","City Parks"],["nonfood","Places of Interest","Lifestyle"],["food","NA","NA"],["food","NA","NA"]],"VehicleMode":"Public Transport","Coords":[[1.2931,103.852],[1.2861885928,103.85415714],[1.3067017019,103.8517943356],[1.3077992153,103.8506522113],[1.3082766366,103.8510258281]],"StartTimePOI":[["Fri, 22 Sep 2023 10:00:00 GMT"],["Fri, 22 Sep 2023 11:29:59 GMT"],["Fri, 22 Sep 2023 13:19:47 GMT"],["Fri, 22 Sep 2023 14:23:08 GMT"]],"ReachTimePOI":[["Fri, 22 Sep 2023 10:29:59 GMT"],["Fri, 22 Sep 2023 12:19:47 GMT"],["Fri, 22 Sep 2023 13:23:08 GMT"],["Fri, 22 Sep 2023 14:24:04 GMT"]],"LeaveTimePOI":[["Fri, 22 Sep 2023 11:29:59 GMT"],["Fri, 22 Sep 2023 13:19:47 GMT"],["Fri, 22 Sep 2023 14:23:08 GMT"],["Fri, 22 Sep 2023 15:24:04 GMT"]],"TotalTime":"5h 24min","Total distance(km)":3.8201213759,"Routes":[{"debugOutput":{"pathCalculationTime":24,"pathTimes":[8,9,7],"precalculationTime":46,"renderingTime":0,"timedOut":false,"totalTime":70},"elevationMetadata":{"ellipsoidToGeoidDifference":7.3773084369,"geoidElevation":false},"plan":{"date":1701079620000,"from":{"lat":1.2931,"lon":103.852,"name":"Origin","orig":"","vertexType":"NORMAL"},"itineraries":[{"duration":450,"elevationGained":0,"elevationLost":0,"endTime":1701080209000,"fare":"0.99","legs":[{"agencyTimeZoneOffset":28800000,"arrivalDelay":0,"departureDelay":0,"distance":86.153,"duration":65,"endTime":1701079824000,"from":{"departure":1701079759000,"lat":1.2931,"lon":103.852,"name":"Origin","orig":"","vertexType":"NORMAL"},"interlineWithPreviousLeg":false,"intermediateStops":[],"legGeometry":{"length":4,"points":"yp{F}qzxRXm@[k@f@]"},"mode":"WALK","numIntermediateStops":1,"pathway":false,"realTime":false,"rentedBike":false,"route":"","startTime":1701079759000,"steps":[{"absoluteDirection":"SOUTHEAST","area":false,"bogusName":false,"distance":86.153,"elevation":[],"lat":1.2930931031,"lon":103.8519960097,"relativeDirection":"DEPART","stayOn":false,"streetName":"path"}],"to":{"arrival":1701079824000,"departure":1701079825000,"lat":1.2929048315,"lon":103.852596374,"name":"CITY HALL MRT STATION","stopCode":"EW13","stopId":"FERRY:EW13","stopIndex":12,"stopSequence":13,"vertexType":"TRANSIT"},"transitLeg":false},{"agencyId":"SMRT","agencyName":"SMRT Corporation","agencyTimeZoneOffset":28800000,"agencyUrl":"http:\/\/www.smrt.com.sg\/","arrivalDelay":0,"departureDelay":0,"distance":1005.5185254056,"duration":83,"endTime":1701079908000,"from":{"arrival":1701079824000,"departure":1701079825000,"lat":1.2929048315,"lon":103.852596374,"name":"CITY HALL MRT STATION","stopCode":"EW13","stopId":"FERRY:EW13","stopIndex":12,"stopSequence":13,"vertexType":"TRANSIT"},"interlineWithPreviousLeg":false,"intermediateStops":[],"legGeometry":{"length":45,"points":"}o{FcvzxRnDsBPIPGp@Wd@KdAQr@E`BAhAJfATl@Rl@VPH^Th@`@v@j@j@`@r@`@FDLFPHNFRHNDRHXHH@RFB@JBr@PTFb@Jh@LH@RDH@^DNBT@~GZN@f@BJ?"},"mode":"SUBWAY","numIntermediateStops":1,"pathway":false,"realTime":false,"rentedBike":false,"route":"EW","routeId":"EW","routeLongName":"EAST WEST LINE","routeShortName":"EW","routeType":1,"serviceDate":"20231127","startTime":1701079825000,"steps":[],"to":{"arrival":1701079908000,"departure":1701079908000,"lat":1.2839332621,"lon":103.851463066,"name":"RAFFLES PLACE MRT STATION","stopCode":"EW14","stopId":"FERRY:EW14","stopIndex":13,"stopSequence":14,"vertexType":"TRANSIT"},"transitLeg":true,"tripId":"EW-2-4004"},{"agencyTimeZoneOffset":28800000,"arrivalDelay":0,"departureDelay":0,"distance":166.2514512484,"duration":10,"endTime":1701079918000,"from":{"arrival":1701079908000,"departure":1701079908000,"lat":1.2839332621,"lon":103.851463066,"name":"RAFFLES PLACE MRT STATION","stopCode":"EW14","stopId":"FERRY:EW14","stopIndex":13,"stopSequence":14,"vertexType":"TRANSIT"},"interlineWithPreviousLeg":false,"intermediateStops":[],"legGeometry":{"length":2,"points":"qwyFsnzxRnCeG"},"mode":"WALK","numIntermediateStops":1,"pathway":false,"realTime":false,"rentedBike":false,"route":"","startTime":1701079908000,"steps":[{"absoluteDirection":"SOUTHEAST","area":false,"bogusName":false,"distance":166.2514512484,"elevation":[],"lat":1.2839332621,"lon":103.851463066,"relativeDirection":"DEPART","stayOn":false,"streetName":"Transfer"}],"to":{"arrival":1701079918000,"departure":1701079919000,"lat":1.2832171808,"lon":103.852775893,"name":"OUE BAYFRONT","vertexType":"NORMAL"},"transitLeg":false},{"agencyTimeZoneOffset":28800000,"arrivalDelay":0,"departureDelay":0,"distance":367.176,"duration":290,"endTime":1701080209000,"from":{"arrival":1701079918000,"departure":1701079919000,"lat":1.2832152682,"lon":103.8527816048,"name":"path","vertexType":"NORMAL"},"interlineWithPreviousLeg":false,"intermediateStops":[],"legGeometry":{"length":23,"points":"asyF{vzxRi@My@SYGGGCCc@]u@Qe@AY?QEWKECAAACACOGaBg@MCSKKIg@Ow@K"},"mode":"WALK","numIntermediateStops":1,"pathway":false,"realTime":false,"rentedBike":false,"route":"","startTime":1701079919000,"steps":[{"absoluteDirection":"NORTH","area":false,"bogusName":true,"distance":367.176,"elevation":[],"lat":1.2832152682,"lon":103.8527816048,"relativeDirection":"LEFT","stayOn":false,"streetName":"path"}],"to":{"arrival":1701080209000,"lat":1.2861885928,"lon":103.85415714,"name":"Destination","orig":"","vertexType":"NORMAL"},"transitLeg":false}],"startTime":1701079759000,"tooSloped":false,"transfers":0,"transitTime":83,"waitingTime":2,"walkDistance":453.3752406,"walkLimitExceeded":false,"walkTime":365},{"duration":531,"elevationGained":0,"elevationLost":0,"endTime":1701080285000,"fare":"0.99","legs":[{"agencyTimeZoneOffset":28800000,"arrivalDelay":0,"departureDelay":0,"distance":86.153,"duration":65,"endTime":1701079819000,"from":{"departure":1701079754000,"lat":1.2931,"lon":103.852,"name":"Origin","orig":"","vertexType":"NORMAL"},"interlineWithPreviousLeg":false,"intermediateStops":[],"legGeometry":{"length":4,"points":"yp{F}qzxRXm@[k@f@]"},"mode":"WALK","numIntermediateStops":1,"pathway":false,"realTime":false,"rentedBike":false,"route":"","startTime":1701079754000,"steps":[{"absoluteDirection":"SOUTHEAST","area":false,"bogusName":false,"distance":86.153,"elevation":[],"lat":1.2930931031,"lon":103.8519960097,"relativeDirection":"DEPART","stayOn":false,"streetName":"path"}],"to":{"arrival":1701079819000,"departure":1701079820000,"lat":1.2929048315,"lon":103.852596374,"name":"CITY HALL MRT STATION","stopCode":"NS25","stopId":"FERRY:NS25","stopIndex":23,"stopSequence":25,"vertexType":"TRANSIT"},"transitLeg":false},{"agencyId":"SMRT","agencyName":"SMRT Corporation","agencyTimeZoneOffset":28800000,"agencyUrl":"http:\/\/www.smrt.com.sg\/","arrivalDelay":0,"departureDelay":0,"distance":1005.5185254056,"duration":82,"endTime":1701079902000,"from":{"arrival":1701079819000,"departure":1701079820000,"lat":1.2929048315,"lon":103.852596374,"name":"CITY HALL MRT STATION","stopCode":"NS25","stopId":"FERRY:NS25","stopIndex":23,"stopSequence":25,"vertexType":"TRANSIT"},"interlineWithPreviousLeg":false,"intermediateStops":[],"legGeometry":{"length":65,"points":"io{FguzxR??~BsA\\SRK`@QRGXKZGREXG^EJA`@CZAR?X?V@T@V@^D\\FZFVFn@RNFVJPJl@ZhAl@b@TRJp@VB@JDHBFBB@@???@@JBB@JBdAVn@P`@JF@HBH@JBj@JD@J@RBPBF@L@J?B@l@BjADjAFvBHbAD"},"mode":"SUBWAY","numIntermediateStops":1,"pathway":false,"realTime":false,"rentedBike":false,"route":"NS","routeId":"NS","routeLongName":"NORTH SOUTH LINE","routeShortName":"NS","routeType":1,"serviceDate":"20231127","startTime":1701079820000,"steps":[],"to":{"arrival":1701079902000,"departure":1701079903000,"lat":1.2839332621,"lon":103.851463066,"name":"RAFFLES PLACE MRT STATION","stopCode":"NS26","stopId":"FERRY:NS26","stopIndex":24,"stopSequence":26,"vertexType":"TRANSIT"},"transitLeg":true,"tripId":"NS-2-3146"},{"agencyTimeZoneOffset":28800000,"arrivalDelay":0,"departureDelay":0,"distance":484.766,"duration":382,"endTime":1701080285000,"from":{"arrival":1701079902000,"departure":1701079903000,"lat":1.2839332621,"lon":103.851463066,"name":"RAFFLES PLACE MRT STATION","stopCode":"NS26","stopId":"FERRY:NS26","stopIndex":24,"stopSequence":26,"vertexType":"TRANSIT"},"interlineWithPreviousLeg":false,"intermediateStops":[],"legGeometry":{"length":24,"points":"qwyFsnzxR]k@t@wDReAYGGGCCc@]u@Qe@AY?QEWKECAAACACOGaBg@MCSKKIg@Ow@K"},"mode":"WALK","numIntermediateStops":1,"pathway":false,"realTime":false,"rentedBike":false,"route":"","startTime":1701079903000,"steps":[{"absoluteDirection":"NORTHEAST","area":false,"bogusName":true,"distance":484.766,"elevation":[],"lat":1.283933262,"lon":103.851463067,"relativeDirection":"DEPART","stayOn":false,"streetName":"path"}],"to":{"arrival":1701080285000,"lat":1.2861885928,"lon":103.85415714,"name":"Destination","orig":"","vertexType":"NORMAL"},"transitLeg":false}],"startTime":1701079754000,"tooSloped":false,"transfers":0,"transitTime":82,"waitingTime":2,"walkDistance":571.0103533805,"walkLimitExceeded":false,"walkTime":447},{"duration":818,"elevationGained":0,"elevationLost":0,"endTime":1701080665000,"fare":"0.99","legs":[{"agencyTimeZoneOffset":28800000,"arrivalDelay":0,"departureDelay":0,"distance":460.117,"duration":382,"endTime":1701080229000,"from":{"departure":1701079847000,"lat":1.2931,"lon":103.852,"name":"Origin","orig":"","vertexType":"NORMAL"},"interlineWithPreviousLeg":false,"intermediateStops":[],"legGeometry":{"length":22,"points":"yp{F}qzxRXm@[k@f@]??@m@KEKGhAaCVg@O_@Oa@M[FE`BwBTYHKn@w@@CCAA???"},"mode":"WALK","numIntermediateStops":1,"pathway":false,"realTime":false,"rentedBike":false,"route":"","startTime":1701079847000,"steps":[{"absoluteDirection":"SOUTHEAST","area":false,"bogusName":false,"distance":460.117,"elevation":[],"lat":1.2930931031,"lon":103.8519960097,"relativeDirection":"DEPART","stayOn":false,"streetName":"path"}],"to":{"arrival":1701080229000,"departure":1701080230000,"lat":1.2918440736,"lon":103.855343343,"name":"OPP WAR MEMORIAL PK","stopCode":"02119","stopId":"FERRY:02119","stopIndex":29,"stopSequence":30,"vertexType":"TRANSIT"},"transitLeg":false},{"agencyId":"SBST","agencyName":"SBS Transit","agencyTimeZoneOffset":28800000,"agencyUrl":"http:\/\/www.sbstransit.com.sg\/","arrivalDelay":0,"departureDelay":0,"distance":1000.8284982216,"duration":144,"endTime":1701080374000,"from":{"arrival":1701080229000,"departure":1701080230000,"lat":1.2918440736,"lon":103.855343343,"name":"OPP WAR MEMORIAL PK","stopCode":"02119","stopId":"FERRY:02119","stopIndex":29,"stopSequence":30,"vertexType":"TRANSIT"},"interlineWithPreviousLeg":false,"intermediateStops":[],"legGeometry":{"length":26,"points":"ki{Fef{xRbB|@xA`@D@D@????@?x@RpB\\~BZdNrAl@Dn@LLDLFLBzBf@VJ@@h@RTFlBl@lBf@`Dx@B?"},"mode":"BUS","numIntermediateStops":1,"pathway":false,"realTime":false,"rentedBike":false,"route":"196 \/ 162","routeId":"196","routeLongName":"SBST BUS 196","routeShortName":"196","routeType":3,"serviceDate":"20231127","startTime":1701080230000,"steps":[],"to":{"arrival":1701080374000,"departure":1701080375000,"lat":1.2832171808,"lon":103.852775893,"name":"OUE BAYFRONT","stopCode":"03019","stopId":"FERRY:03019","stopIndex":30,"stopSequence":31,"vertexType":"TRANSIT"},"transitLeg":true,"tripId":"196-1-3004"},{"agencyTimeZoneOffset":28800000,"arrivalDelay":0,"departureDelay":0,"distance":367.176,"duration":290,"endTime":1701080665000,"from":{"arrival":1701080374000,"departure":1701080375000,"lat":1.2832171808,"lon":103.852775893,"name":"OUE BAYFRONT","stopCode":"03019","stopId":"FERRY:03019","stopIndex":30,"stopSequence":31,"vertexType":"TRANSIT"},"interlineWithPreviousLeg":false,"intermediateStops":[],"legGeometry":{"length":23,"points":"asyF{vzxRi@My@SYGGGCCc@]u@Qe@AY?QEWKECAAACACOGaBg@MCSKKIg@Ow@K"},"mode":"WALK","numIntermediateStops":1,"pathway":false,"realTime":false,"rentedBike":false,"route":"","startTime":1701080375000,"steps":[{"absoluteDirection":"NORTH","area":false,"bogusName":true,"distance":367.176,"elevation":[],"lat":1.2832152682,"lon":103.8527816048,"relativeDirection":"DEPART","stayOn":false,"streetName":"path"}],"to":{"arrival":1701080665000,"lat":1.2861885928,"lon":103.85415714,"name":"Destination","orig":"","vertexType":"NORMAL"},"transitLeg":false}],"startTime":1701079847000,"tooSloped":false,"transfers":0,"transitTime":144,"waitingTime":2,"walkDistance":827.5633007432,"walkLimitExceeded":false,"walkTime":672}],"to":{"lat":1.2861885928,"lon":103.85415714,"name":"Destination","orig":"","vertexType":"NORMAL"}},"requestParameters":{"arriveBy":"false","date":"11-27-2023","fromPlace":"1.2931,103.852","maxTransfers":"3","maxWalkDistance":"600","mode":"TRANSIT,WALK","numItineraries":"3","otherThanPreferredRoutesPenalty":"0","preferredRoutes":"1__CC,1__DT,1__EW,1__NE,1__NS,1__PE,1__PW,1__SE,1__SS,1__SW,1__CG,1__BP","showIntermediateStops":"true","time":"6:07pm","toPlace":"1.28618859279801,103.854157139967","transferPenalty":"7200","waitAtBeginningFactor":"0.5","walkReluctance":"2"}},{"debugOutput":{"pathCalculationTime":9,"pathTimes":[3,3,3],"precalculationTime":64,"renderingTime":1,"timedOut":false,"totalTime":74},"elevationMetadata":{"ellipsoidToGeoidDifference":7.3773084369,"geoidElevation":false},"plan":{"date":1701079620000,"from":{"lat":1.2861885928,"lon":103.85415714,"name":"Origin","orig":"","vertexType":"NORMAL"},"itineraries":[{"duration":904,"elevationGained":0,"elevationLost":0,"endTime":1701080798000,"fare":"0.99","legs":[{"agencyTimeZoneOffset":28800000,"arrivalDelay":0,"departureDelay":0,"distance":191.818,"duration":157,"endTime":1701080051000,"from":{"departure":1701079894000,"lat":1.2861885928,"lon":103.85415714,"name":"Origin","orig":"","vertexType":"NORMAL"},"interlineWithPreviousLeg":false,"intermediateStops":[],"legGeometry":{"length":9,"points":"{ezFi~zxRg@GEDq@n@JHl@NLBnAVx@X"},"mode":"WALK","numIntermediateStops":1,"pathway":false,"realTime":false,"rentedBike":false,"route":"","startTime":1701079894000,"steps":[{"absoluteDirection":"NORTH","area":false,"bogusName":false,"distance":191.818,"elevation":[],"lat":1.2862269418,"lon":103.8539744101,"relativeDirection":"DEPART","stayOn":false,"streetName":"path"}],"to":{"arrival":1701080051000,"departure":1701080052000,"lat":1.2856184095,"lon":103.853422232,"name":"FULLERTON SQ","stopCode":"03011","stopId":"FERRY:03011","stopIndex":22,"stopSequence":23,"vertexType":"TRANSIT"},"transitLeg":false},{"agencyId":"SBST","agencyName":"SBS Transit","agencyTimeZoneOffset":28800000,"agencyUrl":"http:\/\/www.sbstransit.com.sg\/","arrivalDelay":0,"departureDelay":0,"distance":2524.4045458177,"duration":569,"endTime":1701080621000,"from":{"arrival":1701080051000,"departure":1701080052000,"lat":1.2856184095,"lon":103.853422232,"name":"FULLERTON SQ","stopCode":"03011","stopId":"FERRY:03011","stopIndex":22,"stopSequence":23,"vertexType":"TRANSIT"},"interlineWithPreviousLeg":false,"intermediateStops":[{"arrival":1701080138000,"departure":1701080168000,"lat":1.2909559235,"lon":103.854534194,"name":"ESPLANADE BRIDGE","stopCode":"02111","stopId":"FERRY:02111","stopIndex":23,"stopSequence":24,"vertexType":"TRANSIT"},{"arrival":1701080240000,"departure":1701080270000,"lat":1.2939544417,"lon":103.851390966,"name":"CAPITOL BLDG","stopCode":"04111","stopId":"FERRY:04111","stopIndex":24,"stopSequence":25,"vertexType":"TRANSIT"},{"arrival":1701080328000,"departure":1701080358000,"lat":1.2961854409,"lon":103.8495803,"name":"SMU","stopCode":"04121","stopId":"FERRY:04121","stopIndex":25,"stopSequence":26,"vertexType":"TRANSIT"},{"arrival":1701080416000,"departure":1701080446000,"lat":1.2992144445,"lon":103.849103292,"name":"SCH OF THE ARTS","stopCode":"08079","stopId":"FERRY:08079","stopIndex":26,"stopSequence":27,"vertexType":"TRANSIT"},{"arrival":1701080474000,"departure":1701080504000,"lat":1.3009969906,"lon":103.849810187,"name":"PEACE CTR","stopCode":"07011","stopId":"FERRY:07011","stopIndex":27,"stopSequence":28,"vertexType":"TRANSIT"},{"arrival":1701080548000,"departure":1701080578000,"lat":1.3037235457,"lon":103.850036757,"name":"SELEGIE CTR","stopCode":"07021","stopId":"FERRY:07021","stopIndex":28,"stopSequence":29,"vertexType":"TRANSIT"}],"legGeometry":{"length":75,"points":"{azFi{zxRMG{Bg@MC[Mo@MsOyA_C[qB]y@S??MCyAa@q@p@QVQLeCdCi@hAg@dAk@bAg@|@a@r@M\\oA|BEFaBxC}@dB[|@_CkAS?O@KDUR[b@]`@A@A@UR[R]P{@f@{@l@oB`Cu@EUEsAgAkBaB??m@i@q@WmGiA??A?q@M]Gq@A_AGsECI?KAgAEk@G??EA_@Ig@KWO[QkAq@iAi@i@a@w@_@OI????"},"mode":"BUS","numIntermediateStops":7,"pathway":false,"realTime":false,"rentedBike":false,"route":"131","routeId":"131","routeLongName":"SBST BUS 131","routeShortName":"131","routeType":3,"serviceDate":"20231127","startTime":1701080052000,"steps":[],"to":{"arrival":1701080621000,"departure":1701080622000,"lat":1.305720833,"lon":103.851205833,"name":"TEKKA CTR","stopCode":"07031","stopId":"FERRY:07031","stopIndex":29,"stopSequence":30,"vertexType":"TRANSIT"},"transitLeg":true,"tripId":"131-2-3004"},{"agencyTimeZoneOffset":28800000,"arrivalDelay":0,"departureDelay":0,"distance":184.997,"duration":176,"endTime":1701080798000,"from":{"arrival":1701080621000,"departure":1701080622000,"lat":1.305720833,"lon":103.851205833,"name":"TEKKA CTR","stopCode":"07031","stopId":"FERRY:07031","stopIndex":29,"stopSequence":30,"vertexType":"TRANSIT"},"interlineWithPreviousLeg":false,"intermediateStops":[],"legGeometry":{"length":20,"points":"w_~FamzxR@?UMGGi@[@?JQ@As@c@MIUM??IEOKCAIGC@MTNJGF"},"mode":"WALK","numIntermediateStops":1,"pathway":false,"realTime":false,"rentedBike":false,"route":"","startTime":1701080622000,"steps":[{"absoluteDirection":"SOUTHEAST","area":false,"bogusName":true,"distance":184.997,"elevation":[],"lat":1.3057238342,"lon":103.8512107157,"relativeDirection":"DEPART","stayOn":false,"streetName":"path"}],"to":{"arrival":1701080798000,"lat":1.3067017019,"lon":103.8517943356,"name":"Destination","orig":"","vertexType":"NORMAL"},"transitLeg":false}],"startTime":1701079894000,"tooSloped":false,"transfers":0,"transitTime":569,"waitingTime":2,"walkDistance":377.1052255545,"walkLimitExceeded":false,"walkTime":333},{"duration":997,"elevationGained":0,"elevationLost":0,"endTime":1701080618000,"fare":"0.99","legs":[{"agencyTimeZoneOffset":28800000,"arrivalDelay":0,"departureDelay":0,"distance":367.176,"duration":291,"endTime":1701079912000,"from":{"departure":1701079621000,"lat":1.2861885928,"lon":103.85415714,"name":"Origin","orig":"","vertexType":"NORMAL"},"interlineWithPreviousLeg":false,"intermediateStops":[],"legGeometry":{"length":23,"points":"{ezFi~zxRv@Jf@NJHRJLB`Bf@NF@B@B@@DBVJPDX?d@@t@Pb@\\BBFFXFx@Rh@L"},"mode":"WALK","numIntermediateStops":1,"pathway":false,"realTime":false,"rentedBike":false,"route":"","startTime":1701079621000,"steps":[{"absoluteDirection":"SOUTH","area":false,"bogusName":false,"distance":367.176,"elevation":[],"lat":1.2862269418,"lon":103.8539744101,"relativeDirection":"DEPART","stayOn":false,"streetName":"path"}],"to":{"arrival":1701079912000,"departure":1701079913000,"lat":1.2832152682,"lon":103.8527816048,"name":"path","vertexType":"NORMAL"},"transitLeg":false},{"agencyTimeZoneOffset":28800000,"arrivalDelay":0,"departureDelay":0,"distance":166.2514512484,"duration":10,"endTime":1701079923000,"from":{"arrival":1701079912000,"departure":1701079913000,"lat":1.2832171808,"lon":103.852775893,"name":"OUE BAYFRONT","vertexType":"NORMAL"},"interlineWithPreviousLeg":false,"intermediateStops":[],"legGeometry":{"length":2,"points":"asyFyvzxRoCdG"},"mode":"WALK","numIntermediateStops":1,"pathway":false,"realTime":false,"rentedBike":false,"route":"","startTime":1701079913000,"steps":[{"absoluteDirection":"NORTHWEST","area":false,"bogusName":false,"distance":166.2514512484,"elevation":[],"lat":1.2832171808,"lon":103.852775893,"relativeDirection":"RIGHT","stayOn":false,"streetName":"Transfer"}],"to":{"arrival":1701079923000,"departure":1701079923000,"lat":1.2839332621,"lon":103.851463066,"name":"RAFFLES PLACE MRT STATION","stopCode":"EW14","stopId":"FERRY:EW14","stopIndex":19,"stopSequence":20,"vertexType":"TRANSIT"},"transitLeg":false},{"agencyId":"SMRT","agencyName":"SMRT Corporation","agencyTimeZoneOffset":28800000,"agencyUrl":"http:\/\/www.smrt.com.sg\/","arrivalDelay":0,"departureDelay":0,"distance":1885.5966438518,"duration":191,"endTime":1701080114000,"from":{"arrival":1701079923000,"departure":1701079923000,"lat":1.2839332621,"lon":103.851463066,"name":"RAFFLES PLACE MRT STATION","stopCode":"EW14","stopId":"FERRY:EW14","stopIndex":19,"stopSequence":20,"vertexType":"TRANSIT"},"interlineWithPreviousLeg":false,"intermediateStops":[{"arrival":1701080006000,"departure":1701080036000,"lat":1.2929048315,"lon":103.852596374,"name":"CITY HALL MRT STATION","stopCode":"EW13","stopId":"FERRY:EW13","stopIndex":20,"stopSequence":21,"vertexType":"TRANSIT"}],"legGeometry":{"length":73,"points":"qwyFenzxRcAGaH[c@Cq@IeAUcCo@MCa@K[IUGYKWIQGSKy@_@s@a@{@k@cAq@UMWKKE_AYgBU{ACuAJq@Lm@P_@Le@R{@f@gBbAEBYPWLSLQJYPOHQHSHMFQFODMDQDMBKBKBUBQ@[BI@Y@O?WAO?_@COAUCOCe@Ka@Ka@Oc@SYQ_@Wk@a@w@o@qDuC}EyDiDqC}@s@"},"mode":"SUBWAY","numIntermediateStops":2,"pathway":false,"realTime":false,"rentedBike":false,"route":"EW","routeId":"EW","routeLongName":"EAST WEST LINE","routeShortName":"EW","routeType":1,"serviceDate":"20231127","startTime":1701079923000,"steps":[],"to":{"arrival":1701080114000,"departure":1701080114000,"lat":1.3002476806,"lon":103.855551003,"name":"BUGIS MRT STATION","stopCode":"EW12","stopId":"FERRY:EW12","stopIndex":21,"stopSequence":22,"vertexType":"TRANSIT"},"transitLeg":true,"tripId":"EW-1-3152"},{"agencyTimeZoneOffset":28800000,"arrivalDelay":0,"departureDelay":0,"distance":178.144738556,"duration":20,"endTime":1701080134000,"from":{"arrival":1701080114000,"departure":1701080114000,"lat":1.3002476806,"lon":103.855551003,"name":"BUGIS MRT STATION","stopCode":"EW12","stopId":"FERRY:EW12","stopIndex":21,"stopSequence":22,"vertexType":"TRANSIT"},"interlineWithPreviousLeg":false,"intermediateStops":[],"legGeometry":{"length":2,"points":"o}|Feh{xRlDkG"},"mode":"WALK","numIntermediateStops":1,"pathway":false,"realTime":false,"rentedBike":false,"route":"","startTime":1701080114000,"steps":[{"absoluteDirection":"SOUTHEAST","area":false,"bogusName":false,"distance":178.144738556,"elevation":[],"lat":1.3002476806,"lon":103.855551003,"relativeDirection":"DEPART","stayOn":false,"streetName":"Transfer"}],"to":{"arrival":1701080134000,"departure":1701080185000,"lat":1.299376352,"lon":103.856895776,"name":"BUGIS MRT STATION","stopCode":"DT14","stopId":"FERRY:DT14","stopIndex":21,"stopSequence":22,"vertexType":"TRANSIT"},"transitLeg":false},{"agencyId":"SBST","agencyName":"SBS Transit","agencyTimeZoneOffset":28800000,"agencyUrl":"http:\/\/www.sbstransit.com.sg\/","arrivalDelay":0,"departureDelay":0,"distance":706.0312830738,"duration":107,"endTime":1701080292000,"from":{"arrival":1701080134000,"departure":1701080185000,"lat":1.299376352,"lon":103.856895776,"name":"BUGIS MRT STATION","stopCode":"DT14","stopId":"FERRY:DT14","stopIndex":21,"stopSequence":22,"vertexType":"TRANSIT"},"interlineWithPreviousLeg":false,"intermediateStops":[],"legGeometry":{"length":8,"points":"kx|F}p{xROJuHrHuCnCeCdB{BlAqAtAeAjD"},"mode":"SUBWAY","numIntermediateStops":1,"pathway":false,"realTime":false,"rentedBike":false,"route":"DT","routeId":"DT","routeLongName":"DOWNTOWN LINE","routeShortName":"DT","routeType":1,"serviceDate":"20231127","startTime":1701080185000,"steps":[],"to":{"arrival":1701080292000,"departure":1701080292000,"lat":1.3039345092,"lon":103.852474327,"name":"ROCHOR MRT STATION","stopCode":"DT13","stopId":"FERRY:DT13","stopIndex":22,"stopSequence":23,"vertexType":"TRANSIT"},"transitLeg":true,"tripId":"DT-1-6002"},{"agencyTimeZoneOffset":28800000,"arrivalDelay":0,"departureDelay":0,"distance":91.9838726166,"duration":10,"endTime":1701080302000,"from":{"arrival":1701080292000,"departure":1701080292000,"lat":1.3039345092,"lon":103.852474327,"name":"ROCHOR MRT STATION","stopCode":"DT13","stopId":"FERRY:DT13","stopIndex":22,"stopSequence":23,"vertexType":"TRANSIT"},"interlineWithPreviousLeg":false,"intermediateStops":[],"legGeometry":{"length":2,"points":"qt}F}tzxRgC|A"},"mode":"WALK","numIntermediateStops":1,"pathway":false,"realTime":false,"rentedBike":false,"route":"","startTime":1701080292000,"steps":[{"absoluteDirection":"NORTHWEST","area":false,"bogusName":false,"distance":91.9838726166,"elevation":[],"lat":1.3039345092,"lon":103.852474327,"relativeDirection":"DEPART","stayOn":false,"streetName":"Transfer"}],"to":{"arrival":1701080302000,"departure":1701080303000,"lat":1.3046130074,"lon":103.852000972,"name":"OPP ROCHOR STN","vertexType":"NORMAL"},"transitLeg":false},{"agencyTimeZoneOffset":28800000,"arrivalDelay":0,"departureDelay":0,"distance":347.375,"duration":315,"endTime":1701080618000,"from":{"arrival":1701080302000,"departure":1701080303000,"lat":1.3046130073,"lon":103.8520009722,"name":"path","vertexType":"NORMAL"},"interlineWithPreviousLeg":false,"intermediateStops":[],"legGeometry":{"length":33,"points":"yx}F_rzxRA?ITMh@ABWKQOU@CEE?EFEJKPm@bASKA?u@a@AAAAMAIAs@c@MIUM??IEOKCAIGC@MTNJGF"},"mode":"WALK","numIntermediateStops":1,"pathway":false,"realTime":false,"rentedBike":false,"route":"","startTime":1701080303000,"steps":[{"absoluteDirection":"NORTHEAST","area":false,"bogusName":true,"distance":347.375,"elevation":[],"lat":1.3046130073,"lon":103.8520009722,"relativeDirection":"RIGHT","stayOn":false,"streetName":"path"}],"to":{"arrival":1701080618000,"lat":1.3067017019,"lon":103.8517943356,"name":"Destination","orig":"","vertexType":"NORMAL"},"transitLeg":false}],"startTime":1701079621000,"tooSloped":false,"transfers":1,"transitTime":298,"waitingTime":53,"walkDistance":714.9107744245,"walkLimitExceeded":false,"walkTime":646},{"duration":1087,"elevationGained":0,"elevationLost":0,"endTime":1701081084000,"fare":"0.99","legs":[{"agencyTimeZoneOffset":28800000,"arrivalDelay":0,"departureDelay":0,"distance":191.818,"duration":157,"endTime":1701080154000,"from":{"departure":1701079997000,"lat":1.2861885928,"lon":103.85415714,"name":"Origin","orig":"","vertexType":"NORMAL"},"interlineWithPreviousLeg":false,"intermediateStops":[],"legGeometry":{"length":9,"points":"{ezFi~zxRg@GEDq@n@JHl@NLBnAVx@X"},"mode":"WALK","numIntermediateStops":1,"pathway":false,"realTime":false,"rentedBike":false,"route":"","startTime":1701079997000,"steps":[{"absoluteDirection":"NORTH","area":false,"bogusName":false,"distance":191.818,"elevation":[],"lat":1.2862269418,"lon":103.8539744101,"relativeDirection":"DEPART","stayOn":false,"streetName":"path"}],"to":{"arrival":1701080154000,"departure":1701080155000,"lat":1.2856184095,"lon":103.853422232,"name":"FULLERTON SQ","stopCode":"03011","stopId":"FERRY:03011","stopIndex":24,"stopSequence":25,"vertexType":"TRANSIT"},"transitLeg":false},{"agencyId":"SBST","agencyName":"SBS Transit","agencyTimeZoneOffset":28800000,"agencyUrl":"http:\/\/www.sbstransit.com.sg\/","arrivalDelay":0,"departureDelay":0,"distance":2778.3174196046,"duration":583,"endTime":1701080738000,"from":{"arrival":1701080154000,"departure":1701080155000,"lat":1.2856184095,"lon":103.853422232,"name":"FULLERTON SQ","stopCode":"03011","stopId":"FERRY:03011","stopIndex":24,"stopSequence":25,"vertexType":"TRANSIT"},"interlineWithPreviousLeg":false,"intermediateStops":[{"arrival":1701080242000,"departure":1701080272000,"lat":1.2909559235,"lon":103.854534194,"name":"ESPLANADE BRIDGE","stopCode":"02111","stopId":"FERRY:02111","stopIndex":25,"stopSequence":26,"vertexType":"TRANSIT"},{"arrival":1701080358000,"departure":1701080388000,"lat":1.2952725917,"lon":103.855336862,"name":"AFT RAFFLES HOTEL","stopCode":"01611","stopId":"FERRY:01611","stopIndex":26,"stopSequence":27,"vertexType":"TRANSIT"},{"arrival":1701080417000,"departure":1701080447000,"lat":1.2969588889,"lon":103.856556111,"name":"OPP SHAW TWRS","stopCode":"01621","stopId":"FERRY:01621","stopIndex":27,"stopSequence":28,"vertexType":"TRANSIT"},{"arrival":1701080490000,"departure":1701080520000,"lat":1.2988646544,"lon":103.857345836,"name":"BUGIS STN EXIT D","stopCode":"01541","stopId":"FERRY:01541","stopIndex":28,"stopSequence":29,"vertexType":"TRANSIT"},{"arrival":1701080578000,"departure":1701080608000,"lat":1.3017197581,"lon":103.854613227,"name":"FU LU SHOU CPLX","stopCode":"07551","stopId":"FERRY:07551","stopIndex":29,"stopSequence":30,"vertexType":"TRANSIT"},{"arrival":1701080651000,"departure":1701080681000,"lat":1.3036564437,"lon":103.852573233,"name":"ROCHOR STN","stopCode":"07531","stopId":"FERRY:07531","stopIndex":30,"stopSequence":31,"vertexType":"TRANSIT"}],"legGeometry":{"length":8,"points":"abzF{zzxRk`@}E_Z_DoIsF}J}CyP`PcKvKaNxT"},"mode":"BUS","numIntermediateStops":7,"pathway":false,"realTime":false,"rentedBike":false,"route":"57","routeId":"57","routeLongName":"SBST BUS 57","routeShortName":"57","routeType":3,"serviceDate":"20231127","startTime":1701080155000,"steps":[],"to":{"arrival":1701080738000,"departure":1701080738000,"lat":1.3060641152,"lon":103.849087515,"name":"LITTLE INDIA STN EXIT A","stopCode":"40011","stopId":"FERRY:40011","stopIndex":31,"stopSequence":32,"vertexType":"TRANSIT"},"transitLeg":true,"tripId":"57-2-3004"},{"agencyTimeZoneOffset":28800000,"arrivalDelay":0,"departureDelay":0,"distance":97.6050536873,"duration":10,"endTime":1701080748000,"from":{"arrival":1701080738000,"departure":1701080738000,"lat":1.3060641152,"lon":103.849087515,"name":"LITTLE INDIA STN EXIT A","stopCode":"40011","stopId":"FERRY:40011","stopIndex":31,"stopSequence":32,"vertexType":"TRANSIT"},"interlineWithPreviousLeg":false,"intermediateStops":[],"legGeometry":{"length":2,"points":"{a~Fw_zxRgCoB"},"mode":"WALK","numIntermediateStops":1,"pathway":false,"realTime":false,"rentedBike":false,"route":"","startTime":1701080738000,"steps":[{"absoluteDirection":"NORTHEAST","area":false,"bogusName":false,"distance":97.6050536873,"elevation":[],"lat":1.3060641152,"lon":103.849087515,"relativeDirection":"DEPART","stayOn":false,"streetName":"Transfer"}],"to":{"arrival":1701080748000,"departure":1701080749000,"lat":1.3067411301,"lon":103.849646366,"name":"LITTLE INDIA MRT STATION","vertexType":"NORMAL"},"transitLeg":false},{"agencyTimeZoneOffset":28800000,"arrivalDelay":0,"departureDelay":0,"distance":390.075,"duration":335,"endTime":1701081084000,"from":{"arrival":1701080748000,"departure":1701080749000,"lat":1.30674113,"lon":103.849646366,"name":"path","vertexType":"NORMAL"},"interlineWithPreviousLeg":false,"intermediateStops":[],"legGeometry":{"length":15,"points":"cf~FgczxRwCeBR_@PJFGPH`AsADEi@Wc@Yl@{@RUOMT[`@k@"},"mode":"WALK","numIntermediateStops":1,"pathway":false,"realTime":false,"rentedBike":false,"route":"","startTime":1701080749000,"steps":[{"absoluteDirection":"NORTHEAST","area":false,"bogusName":true,"distance":390.075,"elevation":[],"lat":1.30674113,"lon":103.849646366,"relativeDirection":"CONTINUE","stayOn":false,"streetName":"path"}],"to":{"arrival":1701081084000,"lat":1.3067017019,"lon":103.8517943356,"name":"Destination","orig":"","vertexType":"NORMAL"},"transitLeg":false}],"startTime":1701079997000,"tooSloped":false,"transfers":0,"transitTime":583,"waitingTime":2,"walkDistance":582.2734511155,"walkLimitExceeded":false,"walkTime":502}],"to":{"lat":1.3067017019,"lon":103.8517943356,"name":"Destination","orig":"","vertexType":"NORMAL"}},"requestParameters":{"arriveBy":"false","date":"11-27-2023","fromPlace":"1.28618859279801,103.854157139967","maxTransfers":"3","maxWalkDistance":"918.4110022894668","mode":"TRANSIT,WALK","numItineraries":"3","otherThanPreferredRoutesPenalty":"0","preferredRoutes":"1__CC,1__DT,1__EW,1__NE,1__NS,1__PE,1__PW,1__SE,1__SS,1__SW,1__CG,1__BP","showIntermediateStops":"true","time":"6:07pm","toPlace":"1.30670170191791,103.851794335641","transferPenalty":"2500","waitAtBeginningFactor":"0.5","walkReluctance":"8"}},{"debugOutput":{"pathCalculationTime":19,"pathTimes":[2,8,9],"precalculationTime":66,"renderingTime":0,"timedOut":false,"totalTime":85},"elevationMetadata":{"ellipsoidToGeoidDifference":7.3773084369,"geoidElevation":false},"plan":{"date":1701079620000,"from":{"lat":1.3067017019,"lon":103.8517943356,"name":"Origin","orig":"","vertexType":"NORMAL"},"itineraries":[{"duration":201,"elevationGained":0,"elevationLost":0,"endTime":1701079821000,"fare":"0.00","legs":[{"agencyTimeZoneOffset":28800000,"arrivalDelay":0,"departureDelay":0,"distance":226.173,"duration":201,"endTime":1701079821000,"from":{"departure":1701079620000,"lat":1.3067017019,"lon":103.8517943356,"name":"Origin","orig":"","vertexType":"NORMAL"},"interlineWithPreviousLeg":false,"intermediateStops":[],"legGeometry":{"length":16,"points":"we~FspzxRa@j@UZNLSTm@z@KNQKMNEHY`@UVC@C?CCQK"},"mode":"WALK","numIntermediateStops":1,"pathway":false,"realTime":false,"rentedBike":false,"route":"","startTime":1701079620000,"steps":[{"absoluteDirection":"NORTHWEST","area":false,"bogusName":false,"distance":226.173,"elevation":[],"lat":1.3066851016,"lon":103.8517814427,"relativeDirection":"DEPART","stayOn":false,"streetName":"path"}],"to":{"arrival":1701079821000,"lat":1.3077992153,"lon":103.8506522113,"name":"Destination","orig":"","vertexType":"NORMAL"},"transitLeg":false}],"startTime":1701079620000,"tooSloped":false,"transfers":0,"transitTime":0,"waitingTime":0,"walkDistance":226.3496917236,"walkLimitExceeded":false,"walkTime":201}],"to":{"lat":1.3077992153,"lon":103.8506522113,"name":"Destination","orig":"","vertexType":"NORMAL"}},"requestParameters":{"arriveBy":"false","date":"11-27-2023","fromPlace":"1.30670170191791,103.851794335641","maxTransfers":"3","maxWalkDistance":"600","mode":"TRANSIT,WALK","numItineraries":"3","otherThanPreferredRoutesPenalty":"0","preferredRoutes":"1__CC,1__DT,1__EW,1__NE,1__NS,1__PE,1__PW,1__SE,1__SS,1__SW,1__CG,1__BP","showIntermediateStops":"true","time":"6:07pm","toPlace":"1.3077992153179,103.850652211289","transferPenalty":"7200","waitAtBeginningFactor":"0.5","walkReluctance":"2"}},{"debugOutput":{"pathCalculationTime":58,"pathTimes":[58],"precalculationTime":0,"renderingTime":0,"timedOut":false,"totalTime":58},"elevationMetadata":{"ellipsoidToGeoidDifference":7.3773084369,"geoidElevation":false},"plan":{"date":1701079620000,"from":{"lat":1.3077992153,"lon":103.8506522113,"name":"Origin","orig":"","vertexType":"NORMAL"},"itineraries":[{"duration":56,"elevationGained":0,"elevationLost":0,"endTime":1701079676000,"fare":"0.00","legs":[{"agencyTimeZoneOffset":28800000,"arrivalDelay":0,"departureDelay":0,"distance":67.498,"duration":56,"endTime":1701079676000,"from":{"departure":1701079620000,"lat":1.3077992153,"lon":103.8506522113,"name":"Origin","orig":"","vertexType":"NORMAL"},"interlineWithPreviousLeg":false,"intermediateStops":[],"legGeometry":{"length":3,"points":"am~FaizxRqA}@LM"},"mode":"WALK","numIntermediateStops":1,"pathway":false,"realTime":false,"rentedBike":false,"route":"","startTime":1701079620000,"steps":[{"absoluteDirection":"NORTHEAST","area":false,"bogusName":false,"distance":67.498,"elevation":[],"lat":1.3078547714,"lon":103.8505780341,"relativeDirection":"DEPART","stayOn":false,"streetName":"path"}],"to":{"arrival":1701079676000,"lat":1.3082766366,"lon":103.8510258281,"name":"Destination","orig":"","vertexType":"NORMAL"},"transitLeg":false}],"startTime":1701079620000,"tooSloped":false,"transfers":0,"transitTime":0,"waitingTime":0,"walkDistance":67.5333383447,"walkLimitExceeded":false,"walkTime":56}],"to":{"lat":1.3082766366,"lon":103.8510258281,"name":"Destination","orig":"","vertexType":"NORMAL"}},"requestParameters":{"arriveBy":"false","date":"11-27-2023","fromPlace":"1.3077992153179,103.850652211289","ignoreRealtimeUpdates":"true","maxTransfers":"2","maxWalkDistance":"600","mode":"WALK","numItineraries":"3","showIntermediateStops":"true","time":"6:07pm","toPlace":"1.3082766366481,103.851025828125","walkReluctance":"20"}}],"user_exist_in_db":true}]