[{"index":0,"Itinerary":[[1.2931,103.852],"Little India","Fifth Season's Tangra Chinese","The Clementi Mall"],"POICategories":[["NA","NA","NA"],["nonfood","Places of Interest","Lifestyle"],["food","NA","NA"],["nonfood","Shopping","Mall"]],"VehicleMode":"Public Transport","Coords":[[1.2931,103.852],[1.3067017019,103.8517943356],[1.3077992153,103.8506522113],[1.3153533074,103.7646518527]],"StartTimePOI":[["Fri, 22 Sep 2023 10:00:00 GMT"],["Fri, 22 Sep 2023 11:34:58 GMT"],["Fri, 22 Sep 2023 12:38:19 GMT"]],"ReachTimePOI":[["Fri, 22 Sep 2023 10:34:58 GMT"],["Fri, 22 Sep 2023 11:38:19 GMT"],["Fri, 22 Sep 2023 14:21:54 GMT"]],"LeaveTimePOI":[["Fri, 22 Sep 2023 11:34:58 GMT"],["Fri, 22 Sep 2023 12:38:19 GMT"],["Fri, 22 Sep 2023 15:21:54 GMT"]],"TotalTime":"5h 21min","Total distance(km)":2.4257364586,"Routes":[{"debugOutput":{"pathCalculationTime":21,"pathTimes":[8,5,8],"precalculationTime":62,"renderingTime":1,"timedOut":false,"totalTime":84},"elevationMetadata":{"ellipsoidToGeoidDifference":7.3773084369,"geoidElevation":false},"plan":{"date":1701079740000,"from":{"lat":1.2931,"lon":103.852,"name":"Origin","orig":"","vertexType":"NORMAL"},"itineraries":[{"duration":648,"elevationGained":0,"elevationLost":0,"endTime":1701080618000,"fare":"0.99","legs":[{"agencyTimeZoneOffset":28800000,"arrivalDelay":0,"departureDelay":0,"distance":86.153,"duration":65,"endTime":1701080035000,"from":{"departure":1701079970000,"lat":1.2931,"lon":103.852,"name":"Origin","orig":"","vertexType":"NORMAL"},"interlineWithPreviousLeg":false,"intermediateStops":[],"legGeometry":{"length":4,"points":"yp{F}qzxRXm@[k@f@]"},"mode":"WALK","numIntermediateStops":1,"pathway":false,"realTime":false,"rentedBike":false,"route":"","startTime":1701079970000,"steps":[{"absoluteDirection":"SOUTHEAST","area":false,"bogusName":false,"distance":86.153,"elevation":[],"lat":1.2930931031,"lon":103.8519960097,"relativeDirection":"DEPART","stayOn":false,"streetName":"path"}],"to":{"arrival":1701080035000,"departure":1701080036000,"lat":1.2929048315,"lon":103.852596374,"name":"CITY HALL MRT STATION","stopCode":"EW13","stopId":"FERRY:EW13","stopIndex":20,"stopSequence":21,"vertexType":"TRANSIT"},"transitLeg":false},{"agencyId":"SMRT","agencyName":"SMRT Corporation","agencyTimeZoneOffset":28800000,"agencyUrl":"http:\/\/www.smrt.com.sg\/","arrivalDelay":0,"departureDelay":0,"distance":880.0781184462,"duration":78,"endTime":1701080114000,"from":{"arrival":1701080035000,"departure":1701080036000,"lat":1.2929048315,"lon":103.852596374,"name":"CITY HALL MRT STATION","stopCode":"EW13","stopId":"FERRY:EW13","stopIndex":20,"stopSequence":21,"vertexType":"TRANSIT"},"interlineWithPreviousLeg":false,"intermediateStops":[],"legGeometry":{"length":42,"points":"}o{FcvzxREBYPWLSLQJYPOHQHSHMFQFODMDQDMBKBKBUBQ@[BI@Y@O?WAO?_@COAUCOCe@Ka@Ka@Oc@SYQ_@Wk@a@w@o@qDuC}EyDiDqC}@s@"},"mode":"SUBWAY","numIntermediateStops":1,"pathway":false,"realTime":false,"rentedBike":false,"route":"EW","routeId":"EW","routeLongName":"EAST WEST LINE","routeShortName":"EW","routeType":1,"serviceDate":"20231127","startTime":1701080036000,"steps":[],"to":{"arrival":1701080114000,"departure":1701080114000,"lat":1.3002476806,"lon":103.855551003,"name":"BUGIS MRT STATION","stopCode":"EW12","stopId":"FERRY:EW12","stopIndex":21,"stopSequence":22,"vertexType":"TRANSIT"},"transitLeg":true,"tripId":"EW-1-3152"},{"agencyTimeZoneOffset":28800000,"arrivalDelay":0,"departureDelay":0,"distance":178.144738556,"duration":20,"endTime":1701080134000,"from":{"arrival":1701080114000,"departure":1701080114000,"lat":1.3002476806,"lon":103.855551003,"name":"BUGIS MRT STATION","stopCode":"EW12","stopId":"FERRY:EW12","stopIndex":21,"stopSequence":22,"vertexType":"TRANSIT"},"interlineWithPreviousLeg":false,"intermediateStops":[],"legGeometry":{"length":2,"points":"o}|Feh{xRlDkG"},"mode":"WALK","numIntermediateStops":1,"pathway":false,"realTime":false,"rentedBike":false,"route":"","startTime":1701080114000,"steps":[{"absoluteDirection":"SOUTHEAST","area":false,"bogusName":false,"distance":178.144738556,"elevation":[],"lat":1.3002476806,"lon":103.855551003,"relativeDirection":"DEPART","stayOn":false,"streetName":"Transfer"}],"to":{"arrival":1701080134000,"departure":1701080185000,"lat":1.299376352,"lon":103.856895776,"name":"BUGIS MRT STATION","stopCode":"DT14","stopId":"FERRY:DT14","stopIndex":21,"stopSequence":22,"vertexType":"TRANSIT"},"transitLeg":false},{"agencyId":"SBST","agencyName":"SBS Transit","agencyTimeZoneOffset":28800000,"agencyUrl":"http:\/\/www.sbstransit.com.sg\/","arrivalDelay":0,"departureDelay":0,"distance":706.0312830738,"duration":107,"endTime":1701080292000,"from":{"arrival":1701080134000,"departure":1701080185000,"lat":1.299376352,"lon":103.856895776,"name":"BUGIS MRT STATION","stopCode":"DT14","stopId":"FERRY:DT14","stopIndex":21,"stopSequence":22,"vertexType":"TRANSIT"},"interlineWithPreviousLeg":false,"intermediateStops":[],"legGeometry":{"length":8,"points":"kx|F}p{xROJuHrHuCnCeCdB{BlAqAtAeAjD"},"mode":"SUBWAY","numIntermediateStops":1,"pathway":false,"realTime":false,"rentedBike":false,"route":"DT","routeId":"DT","routeLongName":"DOWNTOWN LINE","routeShortName":"DT","routeType":1,"serviceDate":"20231127","startTime":1701080185000,"steps":[],"to":{"arrival":1701080292000,"departure":1701080292000,"lat":1.3039345092,"lon":103.852474327,"name":"ROCHOR MRT STATION","stopCode":"DT13","stopId":"FERRY:DT13","stopIndex":22,"stopSequence":23,"vertexType":"TRANSIT"},"transitLeg":true,"tripId":"DT-1-6002"},{"agencyTimeZoneOffset":28800000,"arrivalDelay":0,"departureDelay":0,"distance":91.9838726166,"duration":10,"endTime":1701080302000,"from":{"arrival":1701080292000,"departure":1701080292000,"lat":1.3039345092,"lon":103.852474327,"name":"ROCHOR MRT STATION","stopCode":"DT13","stopId":"FERRY:DT13","stopIndex":22,"stopSequence":23,"vertexType":"TRANSIT"},"interlineWithPreviousLeg":false,"intermediateStops":[],"legGeometry":{"length":2,"points":"qt}F}tzxRgC|A"},"mode":"WALK","numIntermediateStops":1,"pathway":false,"realTime":false,"rentedBike":false,"route":"","startTime":1701080292000,"steps":[{"absoluteDirection":"NORTHWEST","area":false,"bogusName":false,"distance":91.9838726166,"elevation":[],"lat":1.3039345092,"lon":103.852474327,"relativeDirection":"DEPART","stayOn":false,"streetName":"Transfer"}],"to":{"arrival":1701080302000,"departure":1701080303000,"lat":1.3046130074,"lon":103.852000972,"name":"OPP ROCHOR STN","vertexType":"NORMAL"},"transitLeg":false},{"agencyTimeZoneOffset":28800000,"arrivalDelay":0,"departureDelay":0,"distance":347.375,"duration":315,"endTime":1701080618000,"from":{"arrival":1701080302000,"departure":1701080303000,"lat":1.3046130073,"lon":103.8520009722,"name":"path","vertexType":"NORMAL"},"interlineWithPreviousLeg":false,"intermediateStops":[],"legGeometry":{"length":33,"points":"yx}F_rzxRA?ITMh@ABWKQOU@CEE?EFEJKPm@bASKA?u@a@AAAAMAIAs@c@MIUM??IEOKCAIGC@MTNJGF"},"mode":"WALK","numIntermediateStops":1,"pathway":false,"realTime":false,"rentedBike":false,"route":"","startTime":1701080303000,"steps":[{"absoluteDirection":"NORTHEAST","area":false,"bogusName":true,"distance":347.375,"elevation":[],"lat":1.3046130073,"lon":103.8520009722,"relativeDirection":"RIGHT","stayOn":false,"streetName":"path"}],"to":{"arrival":1701080618000,"lat":1.3067017019,"lon":103.8517943356,"name":"Destination","orig":"","vertexType":"NORMAL"},"transitLeg":false}],"startTime":1701079970000,"tooSloped":false,"transfers":1,"transitTime":185,"waitingTime":53,"walkDistance":433.8373984863,"walkLimitExceeded":false,"walkTime":410},{"duration":722,"elevationGained":0,"elevationLost":0,"endTime":1701080582000,"fare":"0.99","legs":[{"agencyTimeZoneOffset":28800000,"arrivalDelay":0,"departureDelay":0,"distance":86.153,"duration":65,"endTime":1701079925000,"from":{"departure":1701079860000,"lat":1.2931,"lon":103.852,"name":"Origin","orig":"","vertexType":"NORMAL"},"interlineWithPreviousLeg":false,"intermediateStops":[],"legGeometry":{"length":4,"points":"yp{F}qzxRXm@[k@f@]"},"mode":"WALK","numIntermediateStops":1,"pathway":false,"realTime":false,"rentedBike":false,"route":"","startTime":1701079860000,"steps":[{"absoluteDirection":"SOUTHEAST","area":false,"bogusName":false,"distance":86.153,"elevation":[],"lat":1.2930931031,"lon":103.8519960097,"relativeDirection":"DEPART","stayOn":false,"streetName":"path"}],"to":{"arrival":1701079925000,"departure":1701079926000,"lat":1.2929048315,"lon":103.852596374,"name":"CITY HALL MRT STATION","stopCode":"NS25","stopId":"FERRY:NS25","stopIndex":3,"stopSequence":4,"vertexType":"TRANSIT"},"transitLeg":false},{"agencyId":"SMRT","agencyName":"SMRT Corporation","agencyTimeZoneOffset":28800000,"agencyUrl":"http:\/\/www.smrt.com.sg\/","arrivalDelay":0,"departureDelay":0,"distance":965.1493796816,"duration":79,"endTime":1701080005000,"from":{"arrival":1701079925000,"departure":1701079926000,"lat":1.2929048315,"lon":103.852596374,"name":"CITY HALL MRT STATION","stopCode":"NS25","stopId":"FERRY:NS25","stopIndex":3,"stopSequence":4,"vertexType":"TRANSIT"},"interlineWithPreviousLeg":false,"intermediateStops":[],"legGeometry":{"length":13,"points":"io{FguzxR??eE`COJo@`@sBvAiIrFaBrAuAbBaAvAgAzBe@zA{A|G"},"mode":"SUBWAY","numIntermediateStops":1,"pathway":false,"realTime":false,"rentedBike":false,"route":"NS","routeId":"NS","routeLongName":"NORTH SOUTH LINE","routeShortName":"NS","routeType":1,"serviceDate":"20231127","startTime":1701079926000,"steps":[],"to":{"arrival":1701080005000,"departure":1701080005000,"lat":1.2986887229,"lon":103.846122838,"name":"DHOBY GHAUT MRT STATION","stopCode":"NS24","stopId":"FERRY:NS24","stopIndex":4,"stopSequence":5,"vertexType":"TRANSIT"},"transitLeg":true,"tripId":"NS-1-4012"},{"agencyTimeZoneOffset":28800000,"arrivalDelay":0,"departureDelay":0,"distance":132.7833508889,"duration":20,"endTime":1701080025000,"from":{"arrival":1701080005000,"departure":1701080005000,"lat":1.2986887229,"lon":103.846122838,"name":"DHOBY GHAUT MRT STATION","stopCode":"NS24","stopId":"FERRY:NS24","stopIndex":4,"stopSequence":5,"vertexType":"TRANSIT"},"interlineWithPreviousLeg":false,"intermediateStops":[],"legGeometry":{"length":2,"points":"ws|FgmyxR{DtC"},"mode":"WALK","numIntermediateStops":1,"pathway":false,"realTime":false,"rentedBike":false,"route":"","startTime":1701080005000,"steps":[{"absoluteDirection":"NORTHWEST","area":false,"bogusName":false,"distance":132.7833508889,"elevation":[],"lat":1.2986887229,"lon":103.846122838,"relativeDirection":"DEPART","stayOn":false,"streetName":"Transfer"}],"to":{"arrival":1701080025000,"departure":1701080166000,"lat":1.2996206158,"lon":103.845375944,"name":"DHOBY GHAUT MRT STATION","stopCode":"NE6","stopId":"FERRY:NE6","stopIndex":4,"stopSequence":6,"vertexType":"TRANSIT"},"transitLeg":false},{"agencyId":"SBST","agencyName":"SBS Transit","agencyTimeZoneOffset":28800000,"agencyUrl":"http:\/\/www.sbstransit.com.sg\/","arrivalDelay":0,"departureDelay":0,"distance":923.1791690431,"duration":80,"endTime":1701080246000,"from":{"arrival":1701080025000,"departure":1701080166000,"lat":1.2996206158,"lon":103.845375944,"name":"DHOBY GHAUT MRT STATION","stopCode":"NE6","stopId":"FERRY:NE6","stopIndex":4,"stopSequence":6,"vertexType":"TRANSIT"},"interlineWithPreviousLeg":false,"intermediateStops":[],"legGeometry":{"length":34,"points":"iz|FggyxRuAm@gXwLCACACCCACACACACACACASK[O[QYO[QYQYSYQACCACACCCAAACCCACCAA{B_B^V}CyB"},"mode":"SUBWAY","numIntermediateStops":1,"pathway":false,"realTime":false,"rentedBike":false,"route":"NE","routeId":"NE","routeLongName":"NORTH EAST LINE","routeShortName":"NE","routeType":1,"serviceDate":"20231127","startTime":1701080166000,"steps":[],"to":{"arrival":1701080246000,"departure":1701080247000,"lat":1.3067411301,"lon":103.849646366,"name":"LITTLE INDIA MRT STATION","stopCode":"NE7","stopId":"FERRY:NE7","stopIndex":5,"stopSequence":7,"vertexType":"TRANSIT"},"transitLeg":true,"tripId":"NE-1-4013"},{"agencyTimeZoneOffset":28800000,"arrivalDelay":0,"departureDelay":0,"distance":390.075,"duration":335,"endTime":1701080582000,"from":{"arrival":1701080246000,"departure":1701080247000,"lat":1.3067411301,"lon":103.849646366,"name":"LITTLE INDIA MRT STATION","stopCode":"NE7","stopId":"FERRY:NE7","stopIndex":5,"stopSequence":7,"vertexType":"TRANSIT"},"interlineWithPreviousLeg":false,"intermediateStops":[],"legGeometry":{"length":15,"points":"cf~FgczxRwCeBR_@PJFGPH`AsADEi@Wc@Yl@{@RUOMT[`@k@"},"mode":"WALK","numIntermediateStops":1,"pathway":false,"realTime":false,"rentedBike":false,"route":"","startTime":1701080247000,"steps":[{"absoluteDirection":"NORTHEAST","area":false,"bogusName":true,"distance":390.075,"elevation":[],"lat":1.30674113,"lon":103.849646366,"relativeDirection":"DEPART","stayOn":false,"streetName":"path"}],"to":{"arrival":1701080582000,"lat":1.3067017019,"lon":103.8517943356,"name":"Destination","orig":"","vertexType":"NORMAL"},"transitLeg":false}],"startTime":1701079860000,"tooSloped":false,"transfers":1,"transitTime":159,"waitingTime":143,"walkDistance":476.5347669074,"walkLimitExceeded":false,"walkTime":420},{"duration":728,"elevationGained":0,"elevationLost":0,"endTime":1701080798000,"fare":"0.99","legs":[{"agencyTimeZoneOffset":28800000,"arrivalDelay":0,"departureDelay":0,"distance":237.462,"duration":199,"endTime":1701080269000,"from":{"departure":1701080070000,"lat":1.2931,"lon":103.852,"name":"Origin","orig":"","vertexType":"NORMAL"},"interlineWithPreviousLeg":false,"intermediateStops":[],"legGeometry":{"length":16,"points":"yp{F}qzxR??DN?@v@^EF?Fg@YkAo@GICBQ\\CFMJs@nAEF"},"mode":"WALK","numIntermediateStops":1,"pathway":false,"realTime":false,"rentedBike":false,"route":"","startTime":1701080070000,"steps":[{"absoluteDirection":"WEST","area":false,"bogusName":false,"distance":237.462,"elevation":[],"lat":1.2930931031,"lon":103.8519960097,"relativeDirection":"DEPART","stayOn":false,"streetName":"path"}],"to":{"arrival":1701080269000,"departure":1701080270000,"lat":1.2939544417,"lon":103.851390966,"name":"CAPITOL BLDG","stopCode":"04111","stopId":"FERRY:04111","stopIndex":24,"stopSequence":25,"vertexType":"TRANSIT"},"transitLeg":false},{"agencyId":"SBST","agencyName":"SBS Transit","agencyTimeZoneOffset":28800000,"agencyUrl":"http:\/\/www.sbstransit.com.sg\/","arrivalDelay":0,"departureDelay":0,"distance":1435.1872707828,"duration":351,"endTime":1701080621000,"from":{"arrival":1701080269000,"departure":1701080270000,"lat":1.2939544417,"lon":103.851390966,"name":"CAPITOL BLDG","stopCode":"04111","stopId":"FERRY:04111","stopIndex":24,"stopSequence":25,"vertexType":"TRANSIT"},"interlineWithPreviousLeg":false,"intermediateStops":[{"arrival":1701080328000,"departure":1701080358000,"lat":1.2961854409,"lon":103.8495803,"name":"SMU","stopCode":"04121","stopId":"FERRY:04121","stopIndex":25,"stopSequence":26,"vertexType":"TRANSIT"},{"arrival":1701080416000,"departure":1701080446000,"lat":1.2992144445,"lon":103.849103292,"name":"SCH OF THE ARTS","stopCode":"08079","stopId":"FERRY:08079","stopIndex":26,"stopSequence":27,"vertexType":"TRANSIT"},{"arrival":1701080474000,"departure":1701080504000,"lat":1.3009969906,"lon":103.849810187,"name":"PEACE CTR","stopCode":"07011","stopId":"FERRY:07011","stopIndex":27,"stopSequence":28,"vertexType":"TRANSIT"},{"arrival":1701080548000,"departure":1701080578000,"lat":1.3037235457,"lon":103.850036757,"name":"SELEGIE CTR","stopCode":"07021","stopId":"FERRY:07021","stopIndex":28,"stopSequence":29,"vertexType":"TRANSIT"}],"legGeometry":{"length":52,"points":"iv{FgnzxREFaBxC}@dB[|@_CkAS?O@KDUR[b@]`@A@A@UR[R]P{@f@{@l@oB`Cu@EUEsAgAkBaB??m@i@q@WmGiA??A?q@M]Gq@A_AGsECI?KAgAEk@G??EA_@Ig@KWO[QkAq@iAi@i@a@w@_@OI????"},"mode":"BUS","numIntermediateStops":5,"pathway":false,"realTime":false,"rentedBike":false,"route":"131 \/ 857","routeId":"131","routeLongName":"SBST BUS 131","routeShortName":"131","routeType":3,"serviceDate":"20231127","startTime":1701080270000,"steps":[],"to":{"arrival":1701080621000,"departure":1701080622000,"lat":1.305720833,"lon":103.851205833,"name":"TEKKA CTR","stopCode":"07031","stopId":"FERRY:07031","stopIndex":29,"stopSequence":30,"vertexType":"TRANSIT"},"transitLeg":true,"tripId":"131-2-3004"},{"agencyTimeZoneOffset":28800000,"arrivalDelay":0,"departureDelay":0,"distance":184.997,"duration":176,"endTime":1701080798000,"from":{"arrival":1701080621000,"departure":1701080622000,"lat":1.305720833,"lon":103.851205833,"name":"TEKKA CTR","stopCode":"07031","stopId":"FERRY:07031","stopIndex":29,"stopSequence":30,"vertexType":"TRANSIT"},"interlineWithPreviousLeg":false,"intermediateStops":[],"legGeometry":{"length":20,"points":"w_~FamzxR@?UMGGi@[@?JQ@As@c@MIUM??IEOKCAIGC@MTNJGF"},"mode":"WALK","numIntermediateStops":1,"pathway":false,"realTime":false,"rentedBike":false,"route":"","startTime":1701080622000,"steps":[{"absoluteDirection":"SOUTHEAST","area":false,"bogusName":true,"distance":184.997,"elevation":[],"lat":1.3057238342,"lon":103.8512107157,"relativeDirection":"DEPART","stayOn":false,"streetName":"path"}],"to":{"arrival":1701080798000,"lat":1.3067017019,"lon":103.8517943356,"name":"Destination","orig":"","vertexType":"NORMAL"},"transitLeg":false}],"startTime":1701080070000,"tooSloped":false,"transfers":0,"transitTime":351,"waitingTime":2,"walkDistance":422.8217819432,"walkLimitExceeded":false,"walkTime":375}],"to":{"lat":1.3067017019,"lon":103.8517943356,"name":"Destination","orig":"","vertexType":"NORMAL"}},"requestParameters":{"arriveBy":"false","date":"11-27-2023","fromPlace":"1.2931,103.852","maxTransfers":"3","maxWalkDistance":"600","mode":"TRANSIT,WALK","numItineraries":"3","otherThanPreferredRoutesPenalty":"0","preferredRoutes":"1__CC,1__DT,1__EW,1__NE,1__NS,1__PE,1__PW,1__SE,1__SS,1__SW,1__CG,1__BP","showIntermediateStops":"true","time":"6:09pm","toPlace":"1.30670170191791,103.851794335641","transferPenalty":"7200","waitAtBeginningFactor":"0.5","walkReluctance":"2"}},{"debugOutput":{"pathCalculationTime":18,"pathTimes":[1,9,8],"precalculationTime":68,"renderingTime":0,"timedOut":false,"totalTime":86},"elevationMetadata":{"ellipsoidToGeoidDifference":7.3773084369,"geoidElevation":false},"plan":{"date":1701079740000,"from":{"lat":1.3067017019,"lon":103.8517943356,"name":"Origin","orig":"","vertexType":"NORMAL"},"itineraries":[{"duration":201,"elevationGained":0,"elevationLost":0,"endTime":1701079941000,"fare":"0.00","legs":[{"agencyTimeZoneOffset":28800000,"arrivalDelay":0,"departureDelay":0,"distance":226.173,"duration":201,"endTime":1701079941000,"from":{"departure":1701079740000,"lat":1.3067017019,"lon":103.8517943356,"name":"Origin","orig":"","vertexType":"NORMAL"},"interlineWithPreviousLeg":false,"intermediateStops":[],"legGeometry":{"length":16,"points":"we~FspzxRa@j@UZNLSTm@z@KNQKMNEHY`@UVC@C?CCQK"},"mode":"WALK","numIntermediateStops":1,"pathway":false,"realTime":false,"rentedBike":false,"route":"","startTime":1701079740000,"steps":[{"absoluteDirection":"NORTHWEST","area":false,"bogusName":false,"distance":226.173,"elevation":[],"lat":1.3066851016,"lon":103.8517814427,"relativeDirection":"DEPART","stayOn":false,"streetName":"path"}],"to":{"arrival":1701079941000,"lat":1.3077992153,"lon":103.8506522113,"name":"Destination","orig":"","vertexType":"NORMAL"},"transitLeg":false}],"startTime":1701079740000,"tooSloped":false,"transfers":0,"transitTime":0,"waitingTime":0,"walkDistance":226.3496917236,"walkLimitExceeded":false,"walkTime":201}],"to":{"lat":1.3077992153,"lon":103.8506522113,"name":"Destination","orig":"","vertexType":"NORMAL"}},"requestParameters":{"arriveBy":"false","date":"11-27-2023","fromPlace":"1.30670170191791,103.851794335641","maxTransfers":"3","maxWalkDistance":"600","mode":"TRANSIT,WALK","numItineraries":"3","otherThanPreferredRoutesPenalty":"0","preferredRoutes":"1__CC,1__DT,1__EW,1__NE,1__NS,1__PE,1__PW,1__SE,1__SS,1__SW,1__CG,1__BP","showIntermediateStops":"true","time":"6:09pm","toPlace":"1.3077992153179,103.850652211289","transferPenalty":"7200","waitAtBeginningFactor":"0.5","walkReluctance":"2"}},{"debugOutput":{"pathCalculationTime":52,"pathTimes":[22,21,9],"precalculationTime":59,"renderingTime":1,"timedOut":false,"totalTime":112},"elevationMetadata":{"ellipsoidToGeoidDifference":7.3773084369,"geoidElevation":false},"plan":{"date":1701079740000,"from":{"lat":1.3077992153,"lon":103.8506522113,"name":"Origin","orig":"","vertexType":"NORMAL"},"itineraries":[{"duration":1359,"elevationGained":0,"elevationLost":0,"endTime":1701081383000,"fare":"1.60","legs":[{"agencyTimeZoneOffset":28800000,"arrivalDelay":0,"departureDelay":0,"distance":214.985,"duration":189,"endTime":1701080213000,"from":{"departure":1701080024000,"lat":1.3077992153,"lon":103.8506522113,"name":"Origin","orig":"","vertexType":"NORMAL"},"interlineWithPreviousLeg":false,"intermediateStops":[],"legGeometry":{"length":11,"points":"am~FaizxRPJBBB?TR?@r@d@FKQKS^vCdB"},"mode":"WALK","numIntermediateStops":1,"pathway":false,"realTime":false,"rentedBike":false,"route":"","startTime":1701080024000,"steps":[{"absoluteDirection":"SOUTHWEST","area":false,"bogusName":false,"distance":214.985,"elevation":[],"lat":1.3078547714,"lon":103.8505780341,"relativeDirection":"DEPART","stayOn":false,"streetName":"path"}],"to":{"arrival":1701080213000,"departure":1701080214000,"lat":1.30674113,"lon":103.849646366,"name":"path","vertexType":"NORMAL"},"transitLeg":false},{"agencyTimeZoneOffset":28800000,"arrivalDelay":0,"departureDelay":0,"distance":118.3911364647,"duration":20,"endTime":1701080234000,"from":{"arrival":1701080213000,"departure":1701080214000,"lat":1.3067411301,"lon":103.849646366,"name":"LITTLE INDIA MRT STATION","vertexType":"NORMAL"},"interlineWithPreviousLeg":false,"intermediateStops":[],"legGeometry":{"length":2,"points":"cf~FgczxRcAhE"},"mode":"WALK","numIntermediateStops":1,"pathway":false,"realTime":false,"rentedBike":false,"route":"","startTime":1701080214000,"steps":[{"absoluteDirection":"WEST","area":false,"bogusName":false,"distance":118.3911364647,"elevation":[],"lat":1.3067411301,"lon":103.849646366,"relativeDirection":"RIGHT","stayOn":false,"streetName":"Transfer"}],"to":{"arrival":1701080234000,"departure":1701080234000,"lat":1.3070847334,"lon":103.848638356,"name":"LITTLE INDIA MRT STATION","stopCode":"DT12","stopId":"FERRY:DT12","stopIndex":23,"stopSequence":24,"vertexType":"TRANSIT"},"transitLeg":false},{"agencyId":"SBST","agencyName":"SBS Transit","agencyTimeZoneOffset":28800000,"agencyUrl":"http:\/\/www.sbstransit.com.sg\/","arrivalDelay":0,"departureDelay":0,"distance":4008.208715348,"duration":307,"endTime":1701080541000,"from":{"arrival":1701080234000,"departure":1701080234000,"lat":1.3070847334,"lon":103.848638356,"name":"LITTLE INDIA MRT STATION","stopCode":"DT12","stopId":"FERRY:DT12","stopIndex":23,"stopSequence":24,"vertexType":"TRANSIT"},"interlineWithPreviousLeg":false,"intermediateStops":[{"arrival":1701080292000,"departure":1701080322000,"lat":1.3136036044,"lon":103.838053808,"name":"NEWTON MRT STATION","stopCode":"DT11","stopId":"FERRY:DT11","stopIndex":24,"stopSequence":25,"vertexType":"TRANSIT"},{"arrival":1701080415000,"departure":1701080445000,"lat":1.320013418,"lon":103.825933658,"name":"STEVENS MRT STATION","stopCode":"DT10","stopId":"FERRY:DT10","stopIndex":25,"stopSequence":26,"vertexType":"TRANSIT"}],"legGeometry":{"length":31,"points":"qg~Fi|yxR]`@iDlEkEzDwCnCoB~D{ElOgBhIkBnFkBdCgBpBOPmCzBuAt@iDhB_E`DiB~AoAzCgJv^_AfFYvCYfEQrAELkAlDiBlEsAbFwBjLw@zG_@~FCvI"},"mode":"SUBWAY","numIntermediateStops":3,"pathway":false,"realTime":false,"rentedBike":false,"route":"DT","routeId":"DT","routeLongName":"DOWNTOWN LINE","routeShortName":"DT","routeType":1,"serviceDate":"20231127","startTime":1701080234000,"steps":[],"to":{"arrival":1701080541000,"departure":1701080541000,"lat":1.3224709714,"lon":103.816330498,"name":"BOTANIC GARDENS MRT STATION","stopCode":"DT9","stopId":"FERRY:DT9","stopIndex":26,"stopSequence":27,"vertexType":"TRANSIT"},"transitLeg":true,"tripId":"DT-1-6001"},{"agencyTimeZoneOffset":28800000,"arrivalDelay":0,"departureDelay":0,"distance":168.881050165,"duration":20,"endTime":1701080561000,"from":{"arrival":1701080541000,"departure":1701080541000,"lat":1.3224709714,"lon":103.816330498,"name":"BOTANIC GARDENS MRT STATION","stopCode":"DT9","stopId":"FERRY:DT9","stopIndex":26,"stopSequence":27,"vertexType":"TRANSIT"},"interlineWithPreviousLeg":false,"intermediateStops":[],"legGeometry":{"length":2,"points":"mhaGassxRbAhH"},"mode":"WALK","numIntermediateStops":1,"pathway":false,"realTime":false,"rentedBike":false,"route":"","startTime":1701080541000,"steps":[{"absoluteDirection":"WEST","area":false,"bogusName":false,"distance":168.881050165,"elevation":[],"lat":1.3224709714,"lon":103.816330498,"relativeDirection":"DEPART","stayOn":false,"streetName":"Transfer"}],"to":{"arrival":1701080561000,"departure":1701080623000,"lat":1.3221330248,"lon":103.814849398,"name":"BOTANIC GARDENS MRT STATION","stopCode":"CC19","stopId":"FERRY:CC19","stopIndex":17,"stopSequence":19,"vertexType":"TRANSIT"},"transitLeg":false},{"agencyId":"SMRT","agencyName":"SMRT Corporation","agencyTimeZoneOffset":28800000,"agencyUrl":"http:\/\/www.smrt.com.sg\/","arrivalDelay":0,"departureDelay":0,"distance":3218.1544995455,"duration":329,"endTime":1701080952000,"from":{"arrival":1701080561000,"departure":1701080623000,"lat":1.3221330248,"lon":103.814849398,"name":"BOTANIC GARDENS MRT STATION","stopCode":"CC19","stopId":"FERRY:CC19","stopIndex":17,"stopSequence":19,"vertexType":"TRANSIT"},"interlineWithPreviousLeg":false,"intermediateStops":[{"arrival":1701080706000,"departure":1701080736000,"lat":1.3175882328,"lon":103.807427549,"name":"FARRER ROAD MRT STATION","stopCode":"CC20","stopId":"FERRY:CC20","stopIndex":18,"stopSequence":20,"vertexType":"TRANSIT"},{"arrival":1701080849000,"departure":1701080879000,"lat":1.3122402963,"lon":103.796399122,"name":"HOLLAND VILLAGE MRT STATION","stopCode":"CC21","stopId":"FERRY:CC21","stopIndex":19,"stopSequence":21,"vertexType":"TRANSIT"}],"legGeometry":{"length":98,"points":"ceaGgksxR`ChBh@b@XRd@Zd@Zh@`@RPHHXTTTV`@Zh@Rh@Pn@Nr@Fl@Df@@^?h@?f@Cr@Aj@?j@@f@Dj@Hd@Jf@L`@Ph@Vf@Vb@NRVX\\`@rE`F@B`BdBRVb@d@NNHFh@j@vCxCPPRRFHPRHHT\\T^Tl@Nf@Jn@Fl@Db@?ZAnG?nA@X@ZJhAP`AZp@JVT`@T`@lApBT`@`AdC^xAVfAb@bBTp@Pb@LTRb@h@fABDbC`FtApCP\\PZXb@X`@VZ^`@^^VT`@\\bFnE|@t@RNp@b@b@THDVLhF~B"},"mode":"SUBWAY","numIntermediateStops":3,"pathway":false,"realTime":false,"rentedBike":false,"route":"CC","routeId":"CC","routeLongName":"CIRCLE LINE","routeShortName":"CC","routeType":1,"serviceDate":"20231127","startTime":1701080623000,"steps":[],"to":{"arrival":1701080952000,"departure":1701080952000,"lat":1.3066345041,"lon":103.790709404,"name":"BUONA VISTA MRT STATION","stopCode":"CC22","stopId":"FERRY:CC22","stopIndex":20,"stopSequence":22,"vertexType":"TRANSIT"},"transitLeg":true,"tripId":"CC-1-4006"},{"agencyTimeZoneOffset":28800000,"arrivalDelay":0,"departureDelay":0,"distance":104.1773767184,"duration":20,"endTime":1701080972000,"from":{"arrival":1701080952000,"departure":1701080952000,"lat":1.3066345041,"lon":103.790709404,"name":"BUONA VISTA MRT STATION","stopCode":"CC22","stopId":"FERRY:CC22","stopIndex":20,"stopSequence":22,"vertexType":"TRANSIT"},"interlineWithPreviousLeg":false,"intermediateStops":[],"legGeometry":{"length":2,"points":"me~F{rnxR}BhC"},"mode":"WALK","numIntermediateStops":1,"pathway":false,"realTime":false,"rentedBike":false,"route":"","startTime":1701080952000,"steps":[{"absoluteDirection":"NORTHWEST","area":false,"bogusName":false,"distance":104.1773767184,"elevation":[],"lat":1.3066345041,"lon":103.790709404,"relativeDirection":"DEPART","stayOn":false,"streetName":"Transfer"}],"to":{"arrival":1701080972000,"departure":1701081032000,"lat":1.3072658086,"lon":103.790016971,"name":"BUONA VISTA MRT STATION","stopCode":"EW21","stopId":"FERRY:EW21","stopIndex":20,"stopSequence":21,"vertexType":"TRANSIT"},"transitLeg":false},{"agencyId":"SMRT","agencyName":"SMRT Corporation","agencyTimeZoneOffset":28800000,"agencyUrl":"http:\/\/www.smrt.com.sg\/","arrivalDelay":0,"departureDelay":0,"distance":2897.2023588807,"duration":275,"endTime":1701081307000,"from":{"arrival":1701080972000,"departure":1701081032000,"lat":1.3072658086,"lon":103.790016971,"name":"BUONA VISTA MRT STATION","stopCode":"EW21","stopId":"FERRY:EW21","stopIndex":20,"stopSequence":21,"vertexType":"TRANSIT"},"interlineWithPreviousLeg":false,"intermediateStops":[{"arrival":1701081142000,"departure":1701081172000,"lat":1.3114547506,"lon":103.778584386,"name":"DOVER MRT STATION","stopCode":"EW22","stopId":"FERRY:EW22","stopIndex":21,"stopSequence":22,"vertexType":"TRANSIT"}],"legGeometry":{"length":133,"points":"}h~FonnxR??MdCE|@Eh@Gj@S|AEh@IxAUlF}@hKWv@[v@oNdXiC|EEFaAjBGJGNINGNILGNGNA@ELGNGPENENGPCNEPEPCNCPCPCPAPANAPAPAPAP?P?P?P?P??@P@P?P@P@P@P|@rN?@@L@P@P@P@Ph@zK?@@N@P@P@P?N@P?P@P?D?JAP?PAP?PAPCPAPCPAPENCPCPENEPCNEPGNENGPGNGNILGNABGJILINCBEHKLILKLKLKLKLKJMJKLMJMJMHMJMJMHMHOHMHOHOFOHOFIBEBOFOFQDOFqBp@UF"},"mode":"SUBWAY","numIntermediateStops":2,"pathway":false,"realTime":false,"rentedBike":false,"route":"EW","routeId":"EW","routeLongName":"EAST WEST LINE","routeShortName":"EW","routeType":1,"serviceDate":"20231127","startTime":1701081032000,"steps":[],"to":{"arrival":1701081307000,"departure":1701081307000,"lat":1.3151998618,"lon":103.765213512,"name":"CLEMENTI MRT STATION","stopCode":"EW23","stopId":"FERRY:EW23","stopIndex":22,"stopSequence":23,"vertexType":"TRANSIT"},"transitLeg":true,"tripId":"EW-2-4005"},{"agencyTimeZoneOffset":28800000,"arrivalDelay":0,"departureDelay":0,"distance":32.5692677176,"duration":10,"endTime":1701081317000,"from":{"arrival":1701081307000,"departure":1701081307000,"lat":1.3151998618,"lon":103.765213512,"name":"CLEMENTI MRT STATION","stopCode":"EW23","stopId":"FERRY:EW23","stopIndex":22,"stopSequence":23,"vertexType":"TRANSIT"},"interlineWithPreviousLeg":false,"intermediateStops":[],"legGeometry":{"length":2,"points":"}z_GqsixRj@d@"},"mode":"WALK","numIntermediateStops":1,"pathway":false,"realTime":false,"rentedBike":false,"route":"","startTime":1701081307000,"steps":[{"absoluteDirection":"SOUTHWEST","area":false,"bogusName":false,"distance":32.5692677176,"elevation":[],"lat":1.3151998618,"lon":103.765213512,"relativeDirection":"DEPART","stayOn":false,"streetName":"Transfer"}],"to":{"arrival":1701081317000,"departure":1701081318000,"lat":1.3149739927,"lon":103.765026983,"name":"CLEMENTI STN EXIT A","vertexType":"NORMAL"},"transitLeg":false},{"agencyTimeZoneOffset":28800000,"arrivalDelay":0,"departureDelay":0,"distance":73.47,"duration":65,"endTime":1701081383000,"from":{"arrival":1701081317000,"departure":1701081318000,"lat":1.314973993,"lon":103.7650269829,"name":"path","vertexType":"NORMAL"},"interlineWithPreviousLeg":false,"intermediateStops":[],"legGeometry":{"length":6,"points":"qy_GkrixR@@SFq@TMDDb@"},"mode":"WALK","numIntermediateStops":1,"pathway":false,"realTime":false,"rentedBike":false,"route":"","startTime":1701081318000,"steps":[{"absoluteDirection":"WEST","area":false,"bogusName":true,"distance":73.47,"elevation":[],"lat":1.314973993,"lon":103.7650269829,"relativeDirection":"SLIGHTLY_RIGHT","stayOn":false,"streetName":"path"}],"to":{"arrival":1701081383000,"lat":1.3153533074,"lon":103.7646518527,"name":"Destination","orig":"","vertexType":"NORMAL"},"transitLeg":false}],"startTime":1701080024000,"tooSloped":false,"transfers":2,"transitTime":911,"waitingTime":124,"walkDistance":288.7309398407,"walkLimitExceeded":false,"walkTime":324},{"duration":1747,"elevationGained":0,"elevationLost":0,"endTime":1701081578000,"fare":"1.60","legs":[{"agencyTimeZoneOffset":28800000,"arrivalDelay":0,"departureDelay":0,"distance":214.985,"duration":189,"endTime":1701080020000,"from":{"departure":1701079831000,"lat":1.3077992153,"lon":103.8506522113,"name":"Origin","orig":"","vertexType":"NORMAL"},"interlineWithPreviousLeg":false,"intermediateStops":[],"legGeometry":{"length":11,"points":"am~FaizxRPJBBB?TR?@r@d@FKQKS^vCdB"},"mode":"WALK","numIntermediateStops":1,"pathway":false,"realTime":false,"rentedBike":false,"route":"","startTime":1701079831000,"steps":[{"absoluteDirection":"SOUTHWEST","area":false,"bogusName":false,"distance":214.985,"elevation":[],"lat":1.3078547714,"lon":103.8505780341,"relativeDirection":"DEPART","stayOn":false,"streetName":"path"}],"to":{"arrival":1701080020000,"departure":1701080021000,"lat":1.3067411301,"lon":103.849646366,"name":"LITTLE INDIA MRT STATION","stopCode":"NE7","stopId":"FERRY:NE7","stopIndex":10,"stopSequence":11,"vertexType":"TRANSIT"},"transitLeg":false},{"agencyId":"SBST","agencyName":"SBS Transit","agencyTimeZoneOffset":28800000,"agencyUrl":"http:\/\/www.sbstransit.com.sg\/","arrivalDelay":0,"departureDelay":0,"distance":3416.9192581058,"duration":409,"endTime":1701080430000,"from":{"arrival":1701080020000,"departure":1701080021000,"lat":1.3067411301,"lon":103.849646366,"name":"LITTLE INDIA MRT STATION","stopCode":"NE7","stopId":"FERRY:NE7","stopIndex":10,"stopSequence":11,"vertexType":"TRANSIT"},"interlineWithPreviousLeg":false,"intermediateStops":[{"arrival":1701080096000,"departure":1701080126000,"lat":1.2996206158,"lon":103.845375944,"name":"DHOBY GHAUT MRT STATION","stopCode":"NE6","stopId":"FERRY:NE6","stopIndex":11,"stopSequence":12,"vertexType":"TRANSIT"},{"arrival":1701080234000,"departure":1701080264000,"lat":1.2887102315,"lon":103.846610946,"name":"CLARKE QUAY MRT STATION","stopCode":"NE5","stopId":"FERRY:NE5","stopIndex":12,"stopSequence":13,"vertexType":"TRANSIT"},{"arrival":1701080313000,"departure":1701080343000,"lat":1.2840949166,"lon":103.843250231,"name":"CHINATOWN MRT STATION","stopCode":"NE4","stopId":"FERRY:NE4","stopIndex":13,"stopSequence":14,"vertexType":"TRANSIT"}],"legGeometry":{"length":262,"points":"if~F}bzxRhChBlBtABBB@@@BBB@BBB@@@??BBB@XPVRXNXPZPXNZNRJB@B@B@B@B@B@B@BBB@??B@??fXvLrAl@f@T??JDJDHDJDHDFBB@JDFB@@JBJDJBHDJBJBJBJBJBJBJBJ@LBJ@J@J@J@L@J@J@J?L@J?J?L?J?J?L?J?JAL?JAJ?JALAJAJAJCJAJCLAJCJCJCJCJCJCHCJEJC@AJCHEJEJEHEJEHEJEHEJEdNoGHEJEHEJEHEJEJEHEJCJEHCJEJCJEJCJCJCLCJCJAJCLCJALAJALAJALAJAL?JAL?JAL?J?L?J@L?L?J@L?J@L@J@L@J@JBL@JBJ@JBJBJ@JBJBJBJBJBzBf@NBzD~@JBJBJDD@JDJBHDJDJD^XXNd@Zj@j@j@h@X\\|@`A|@r@TTTTb@^JHpC|B`At@zBjB|AnADBBBDBBBBDDBBBDBBBDBPNRLTNPJBBDBDBBBDBB@DBDBBBD@t@d@DBBBDBD@BBDBBBDBD@BB@@RLTNRN@@AASOA?@?RNRNRNPPRNPPPPNNB@BBBBBDB@?@BBDBFHBBBD??nBtBNP"},"mode":"SUBWAY","numIntermediateStops":4,"pathway":false,"realTime":false,"rentedBike":false,"route":"NE","routeId":"NE","routeLongName":"NORTH EAST LINE","routeShortName":"NE","routeType":1,"serviceDate":"20231127","startTime":1701080021000,"steps":[],"to":{"arrival":1701080430000,"departure":1701080430000,"lat":1.2797397068,"lon":103.839513521,"name":"OUTRAM PARK MRT STATION","stopCode":"NE3","stopId":"FERRY:NE3","stopIndex":14,"stopSequence":16,"vertexType":"TRANSIT"},"transitLeg":true,"tripId":"NE-2-4008"},{"agencyTimeZoneOffset":28800000,"arrivalDelay":0,"departureDelay":0,"distance":207.0781461064,"duration":20,"endTime":1701080450000,"from":{"arrival":1701080430000,"departure":1701080430000,"lat":1.2797397068,"lon":103.839513521,"name":"OUTRAM PARK MRT STATION","stopCode":"NE3","stopId":"FERRY:NE3","stopIndex":14,"stopSequence":16,"vertexType":"TRANSIT"},"interlineWithPreviousLeg":false,"intermediateStops":[],"legGeometry":{"length":2,"points":"i}xF}cxxReJhB"},"mode":"WALK","numIntermediateStops":1,"pathway":false,"realTime":false,"rentedBike":false,"route":"","startTime":1701080430000,"steps":[{"absoluteDirection":"NORTH","area":false,"bogusName":false,"distance":207.0781461064,"elevation":[],"lat":1.2797397068,"lon":103.839513521,"relativeDirection":"DEPART","stayOn":false,"streetName":"Transfer"}],"to":{"arrival":1701080450000,"departure":1701080560000,"lat":1.2815255935,"lon":103.838985418,"name":"OUTRAM PARK MRT STATION","stopCode":"EW16","stopId":"FERRY:EW16","stopIndex":15,"stopSequence":16,"vertexType":"TRANSIT"},"transitLeg":false},{"agencyId":"SMRT","agencyName":"SMRT Corporation","agencyTimeZoneOffset":28800000,"agencyUrl":"http:\/\/www.smrt.com.sg\/","arrivalDelay":0,"departureDelay":0,"distance":9127.812433177,"duration":942,"endTime":1701081502000,"from":{"arrival":1701080450000,"departure":1701080560000,"lat":1.2815255935,"lon":103.838985418,"name":"OUTRAM PARK MRT STATION","stopCode":"EW16","stopId":"FERRY:EW16","stopIndex":15,"stopSequence":16,"vertexType":"TRANSIT"},"interlineWithPreviousLeg":false,"intermediateStops":[{"arrival":1701080682000,"departure":1701080712000,"lat":1.2862186212,"lon":103.826913425,"name":"TIONG BAHRU MRT STATION","stopCode":"EW17","stopId":"FERRY:EW17","stopIndex":16,"stopSequence":17,"vertexType":"TRANSIT"},{"arrival":1701080810000,"departure":1701080840000,"lat":1.2896750704,"lon":103.81669039,"name":"REDHILL MRT STATION","stopCode":"EW18","stopId":"FERRY:EW18","stopIndex":17,"stopSequence":18,"vertexType":"TRANSIT"},{"arrival":1701080950000,"departure":1701080980000,"lat":1.2948145579,"lon":103.805922715,"name":"QUEENSTOWN MRT STATION","stopCode":"EW19","stopId":"FERRY:EW19","stopIndex":18,"stopSequence":19,"vertexType":"TRANSIT"},{"arrival":1701081079000,"departure":1701081109000,"lat":1.3024474337,"lon":103.798294973,"name":"COMMONWEALTH MRT STATION","stopCode":"EW20","stopId":"FERRY:EW20","stopIndex":19,"stopSequence":20,"vertexType":"TRANSIT"},{"arrival":1701081197000,"departure":1701081227000,"lat":1.3072658086,"lon":103.790016971,"name":"BUONA VISTA MRT STATION","stopCode":"EW21","stopId":"FERRY:EW21","stopIndex":20,"stopSequence":21,"vertexType":"TRANSIT"},{"arrival":1701081337000,"departure":1701081367000,"lat":1.3114547506,"lon":103.778584386,"name":"DOVER MRT STATION","stopCode":"EW22","stopId":"FERRY:EW22","stopIndex":21,"stopSequence":22,"vertexType":"TRANSIT"}],"legGeometry":{"length":282,"points":"ahyFk`xxRwBzDWb@}@vA_@j@qGfLS\\ILQTORKLMJKJMJMJcAx@[VKJMLKJKLKLILILININGLGNGPGNENEPCNEPAPCPAPAPAP?P?P?`@@b@ZjKBt@?`@?b@?b@APAb@APEb@Eb@APG`@i@~D??e@pDG`@I`@EPEPENEPENGNGNGNGNGNINILINILILKLUZ}AlBUZWZINILILININGLINGNGNEPGLENEPENEPCPENCPAPCVC\\APCb@Ab@G|COdHGv@QnA]jAa@zAcAdCEJu@tB[`AUr@SfAYlB{BtXIn@M|@c@`Bc@tAi@jAgBzB}BlCeAhA_Ar@uEdCg@XgAj@yEhCoAv@u@p@u@v@qJxKaLzMoDbEsA|AqA|AeBtBqDjEkFlG_CbCgApAe@~@Y|@i@rCQnBQ`EQhD??MdCE|@Eh@Gj@S|AEh@IxAUlF}@hKWv@[v@oNdXiC|EEFaAjBGJGNINGNILGNGNA@ELGNGPENENGPCNEPEPCNCPCPCPAPANAPAPAPAP?P?P?P?P??@P@P?P@P@P@P|@rN?@@L@P@P@P@Ph@zK?@@N@P@P@P?N@P?P@P?D?JAP?PAP?PAPCPAPCPAPENCPCPENEPCNEPGNENGPGNGNILGNABGJILINCBEHKLILKLKLKLKLKJMJKLMJMJMHMJMJMHMHOHMHOHOFOHOFIBEBOFOFQDOFqBp@UF"},"mode":"SUBWAY","numIntermediateStops":7,"pathway":false,"realTime":false,"rentedBike":false,"route":"EW","routeId":"EW","routeLongName":"EAST WEST LINE","routeShortName":"EW","routeType":1,"serviceDate":"20231127","startTime":1701080560000,"steps":[],"to":{"arrival":1701081502000,"departure":1701081502000,"lat":1.3151998618,"lon":103.765213512,"name":"CLEMENTI MRT STATION","stopCode":"EW23","stopId":"FERRY:EW23","stopIndex":22,"stopSequence":23,"vertexType":"TRANSIT"},"transitLeg":true,"tripId":"EW-2-4006"},{"agencyTimeZoneOffset":28800000,"arrivalDelay":0,"departureDelay":0,"distance":32.5692677176,"duration":10,"endTime":1701081512000,"from":{"arrival":1701081502000,"departure":1701081502000,"lat":1.3151998618,"lon":103.765213512,"name":"CLEMENTI MRT STATION","stopCode":"EW23","stopId":"FERRY:EW23","stopIndex":22,"stopSequence":23,"vertexType":"TRANSIT"},"interlineWithPreviousLeg":false,"intermediateStops":[],"legGeometry":{"length":2,"points":"}z_GqsixRj@d@"},"mode":"WALK","numIntermediateStops":1,"pathway":false,"realTime":false,"rentedBike":false,"route":"","startTime":1701081502000,"steps":[{"absoluteDirection":"SOUTHWEST","area":false,"bogusName":false,"distance":32.5692677176,"elevation":[],"lat":1.3151998618,"lon":103.765213512,"relativeDirection":"DEPART","stayOn":false,"streetName":"Transfer"}],"to":{"arrival":1701081512000,"departure":1701081513000,"lat":1.3149739927,"lon":103.765026983,"name":"CLEMENTI STN EXIT A","vertexType":"NORMAL"},"transitLeg":false},{"agencyTimeZoneOffset":28800000,"arrivalDelay":0,"departureDelay":0,"distance":73.47,"duration":65,"endTime":1701081578000,"from":{"arrival":1701081512000,"departure":1701081513000,"lat":1.314973993,"lon":103.7650269829,"name":"path","vertexType":"NORMAL"},"interlineWithPreviousLeg":false,"intermediateStops":[],"legGeometry":{"length":6,"points":"qy_GkrixR@@SFq@TMDDb@"},"mode":"WALK","numIntermediateStops":1,"pathway":false,"realTime":false,"rentedBike":false,"route":"","startTime":1701081513000,"steps":[{"absoluteDirection":"WEST","area":false,"bogusName":true,"distance":73.47,"elevation":[],"lat":1.314973993,"lon":103.7650269829,"relativeDirection":"SLIGHTLY_RIGHT","stayOn":false,"streetName":"path"}],"to":{"arrival":1701081578000,"lat":1.3153533074,"lon":103.7646518527,"name":"Destination","orig":"","vertexType":"NORMAL"},"transitLeg":false}],"startTime":1701079831000,"tooSloped":false,"transfers":1,"transitTime":1351,"waitingTime":112,"walkDistance":288.7309398407,"walkLimitExceeded":false,"walkTime":284},{"duration":3109,"elevationGained":0,"elevationLost":0,"endTime":1701083287000,"fare":"1.64","legs":[{"agencyTimeZoneOffset":28800000,"arrivalDelay":0,"departureDelay":0,"distance":214.985,"duration":189,"endTime":1701080367000,"from":{"departure":1701080178000,"lat":1.3077992153,"lon":103.8506522113,"name":"Origin","orig":"","vertexType":"NORMAL"},"interlineWithPreviousLeg":false,"intermediateStops":[],"legGeometry":{"length":11,"points":"am~FaizxRPJBBB?TR?@r@d@FKQKS^vCdB"},"mode":"WALK","numIntermediateStops":1,"pathway":false,"realTime":false,"rentedBike":false,"route":"","startTime":1701080178000,"steps":[{"absoluteDirection":"SOUTHWEST","area":false,"bogusName":false,"distance":214.985,"elevation":[],"lat":1.3078547714,"lon":103.8505780341,"relativeDirection":"DEPART","stayOn":false,"streetName":"path"}],"to":{"arrival":1701080367000,"departure":1701080368000,"lat":1.30674113,"lon":103.849646366,"name":"path","vertexType":"NORMAL"},"transitLeg":false},{"agencyTimeZoneOffset":28800000,"arrivalDelay":0,"departureDelay":0,"distance":97.6050536874,"duration":10,"endTime":1701080378000,"from":{"arrival":1701080367000,"departure":1701080368000,"lat":1.3067411301,"lon":103.849646366,"name":"LITTLE INDIA MRT STATION","vertexType":"NORMAL"},"interlineWithPreviousLeg":false,"intermediateStops":[],"legGeometry":{"length":2,"points":"cf~FgczxRfCnB"},"mode":"WALK","numIntermediateStops":1,"pathway":false,"realTime":false,"rentedBike":false,"route":"","startTime":1701080368000,"steps":[{"absoluteDirection":"SOUTHWEST","area":false,"bogusName":false,"distance":97.6050536874,"elevation":[],"lat":1.3067411301,"lon":103.849646366,"relativeDirection":"CONTINUE","stayOn":false,"streetName":"Transfer"}],"to":{"arrival":1701080378000,"departure":1701080378000,"lat":1.3060641152,"lon":103.849087515,"name":"LITTLE INDIA STN EXIT A","stopCode":"40011","stopId":"FERRY:40011","stopIndex":32,"stopSequence":34,"vertexType":"TRANSIT"},"transitLeg":false},{"agencyId":"SBST","agencyName":"SBS Transit","agencyTimeZoneOffset":28800000,"agencyUrl":"http:\/\/www.sbstransit.com.sg\/","arrivalDelay":0,"departureDelay":0,"distance":6924.7202536626,"duration":1590,"endTime":1701081968000,"from":{"arrival":1701080378000,"departure":1701080378000,"lat":1.3060641152,"lon":103.849087515,"name":"LITTLE INDIA STN EXIT A","stopCode":"40011","stopId":"FERRY:40011","stopIndex":32,"stopSequence":34,"vertexType":"TRANSIT"},"interlineWithPreviousLeg":false,"intermediateStops":[{"arrival":1701080450000,"departure":1701080480000,"lat":1.3088066494,"lon":103.846346454,"name":"OPP KK WOMEN & CHILD HOSP","stopCode":"40271","stopId":"FERRY:40271","stopIndex":33,"stopSequence":35,"vertexType":"TRANSIT"},{"arrival":1701080552000,"departure":1701080582000,"lat":1.311035833,"lon":103.8428175,"name":"BEF WINSTEDT RD","stopCode":"40021","stopId":"FERRY:40021","stopIndex":34,"stopSequence":36,"vertexType":"TRANSIT"},{"arrival":1701080626000,"departure":1701080656000,"lat":1.3117850947,"lon":103.840983596,"name":"NEWTON FC","stopCode":"40031","stopId":"FERRY:40031","stopIndex":35,"stopSequence":37,"vertexType":"TRANSIT"},{"arrival":1701080713000,"departure":1701080743000,"lat":1.3137222313,"lon":103.838097426,"name":"NEWTON STN EXIT C","stopCode":"40041","stopId":"FERRY:40041","stopIndex":36,"stopSequence":38,"vertexType":"TRANSIT"},{"arrival":1701080801000,"departure":1701080831000,"lat":1.3158756673,"lon":103.836307523,"name":"BALMORAL PLAZA","stopCode":"40051","stopId":"FERRY:40051","stopIndex":37,"stopSequence":39,"vertexType":"TRANSIT"},{"arrival":1701080888000,"departure":1701080918000,"lat":1.318065,"lon":103.832625556,"name":"CITY TWRS","stopCode":"40111","stopId":"FERRY:40111","stopIndex":38,"stopSequence":40,"vertexType":"TRANSIT"},{"arrival":1701080976000,"departure":1701081006000,"lat":1.319180278,"lon":103.829213611,"name":"LENG KWANG BAPTIST CH","stopCode":"40071","stopId":"FERRY:40071","stopIndex":39,"stopSequence":41,"vertexType":"TRANSIT"},{"arrival":1701081064000,"departure":1701081094000,"lat":1.3201295191,"lon":103.826052596,"name":"STEVENS STN EXIT 1","stopCode":"40081","stopId":"FERRY:40081","stopIndex":40,"stopSequence":42,"vertexType":"TRANSIT"},{"arrival":1701081137000,"departure":1701081167000,"lat":1.3210180729,"lon":103.823509444,"name":"BEF LEWIS RD","stopCode":"40091","stopId":"FERRY:40091","stopIndex":41,"stopSequence":43,"vertexType":"TRANSIT"},{"arrival":1701081239000,"departure":1701081269000,"lat":1.322356111,"lon":103.818916667,"name":"NUS BT TIMAH CAMPUS","stopCode":"41011","stopId":"FERRY:41011","stopIndex":42,"stopSequence":44,"vertexType":"TRANSIT"},{"arrival":1701081326000,"departure":1701081356000,"lat":1.3227237633,"lon":103.815168804,"name":"BOTANIC GDNS STN","stopCode":"41021","stopId":"FERRY:41021","stopIndex":43,"stopSequence":45,"vertexType":"TRANSIT"},{"arrival":1701081428000,"departure":1701081458000,"lat":1.3207422128,"lon":103.812453747,"name":"OPP LUTHERAN TWRS","stopCode":"41119","stopId":"FERRY:41119","stopIndex":44,"stopSequence":46,"vertexType":"TRANSIT"},{"arrival":1701081502000,"departure":1701081532000,"lat":1.319446667,"lon":103.810528611,"name":"OPP ST. MARGARET'S SEC SCH","stopCode":"41109","stopId":"FERRY:41109","stopIndex":45,"stopSequence":47,"vertexType":"TRANSIT"},{"arrival":1701081589000,"departure":1701081619000,"lat":1.3174783349,"lon":103.807856067,"name":"FARRER RD STN EXIT A","stopCode":"11119","stopId":"FERRY:11119","stopIndex":46,"stopSequence":48,"vertexType":"TRANSIT"},{"arrival":1701081662000,"departure":1701081692000,"lat":1.315524722,"lon":103.805743056,"name":"SPANISH VILLAGE","stopCode":"11109","stopId":"FERRY:11109","stopIndex":47,"stopSequence":49,"vertexType":"TRANSIT"},{"arrival":1701081736000,"departure":1701081766000,"lat":1.313053333,"lon":103.804376667,"name":"OPP TULIP GDN","stopCode":"11099","stopId":"FERRY:11099","stopIndex":48,"stopSequence":50,"vertexType":"TRANSIT"},{"arrival":1701081838000,"departure":1701081868000,"lat":1.3111531631,"lon":103.801199198,"name":"AFT ESTORIL MANS","stopCode":"11231","stopId":"FERRY:11231","stopIndex":49,"stopSequence":51,"vertexType":"TRANSIT"}],"legGeometry":{"length":161,"points":"eb~Fa`zxR???@eIjKWTOPuB`A_Ab@??wAl@g@Zy@v@g@p@??_@p@k@hBOl@Kf@Qf@Sn@]dAADUp@c@jA??Yt@c@jAa@hASlBWz@??Oh@YbAwA~DYv@FLD`@EPIPYPa@@SEIGkCvB??yAlAcBxAeAf@gDvC??cGhFMPMb@wCfM??oApFi@zB_@`B]vAQp@YlA??g@zBm@lDALe@vBg@tB[pA??CFk@~Ba@bBiAzEQt@??[rAQl@q@`Do@fDoAdHEZ_@bCAF??YbC]zG?vB?t@Q~C??Gx@Ep@SdDJh@FPLPXH^Dl@D`ANbAV~CnC@?b@^hBlBh@p@N`@B^t@tB??Tr@`A~Bz@vAjAtAhAjA`BjBlBvB|AfB`BfB|@fAVX??~@fAfAx@p@^l@Xx@TpEdA??XFjAP|F|@jARdAPSx@Ot@QbAo@jD[fBIZ??a@fB_@hA[\\}@fBiBfDc@dAOh@Ed@?f@Dh@Hj@j@tAZ~@b@x@f@b@j@TZNrAZl@B??"},"mode":"BUS","numIntermediateStops":18,"pathway":false,"realTime":false,"rentedBike":false,"route":"48","routeId":"48","routeLongName":"SBST BUS 48","routeShortName":"48","routeType":3,"serviceDate":"20231127","startTime":1701080378000,"steps":[],"to":{"arrival":1701081968000,"departure":1701082318000,"lat":1.3110298138,"lon":103.796043992,"name":"HOLLAND V STN EXIT A","stopCode":"11419","stopId":"FERRY:11419","stopIndex":50,"stopSequence":52,"vertexType":"TRANSIT"},"transitLeg":true,"tripId":"48-1-3003"},{"agencyId":"TTS","agencyName":"Tower Transit Services","agencyTimeZoneOffset":28800000,"agencyUrl":"http:\/\/towertransit.sg\/","arrivalDelay":0,"departureDelay":0,"distance":3981.2897921178,"duration":903,"endTime":1701083221000,"from":{"arrival":1701081968000,"departure":1701082318000,"lat":1.3110298138,"lon":103.796043992,"name":"HOLLAND V STN EXIT A","stopCode":"11419","stopId":"FERRY:11419","stopIndex":28,"stopSequence":29,"vertexType":"TRANSIT"},"interlineWithPreviousLeg":false,"intermediateStops":[{"arrival":1701082390000,"departure":1701082420000,"lat":1.307644167,"lon":103.794325833,"name":"BLK 9","stopCode":"11409","stopId":"FERRY:11409","stopIndex":29,"stopSequence":30,"vertexType":"TRANSIT"},{"arrival":1701082463000,"departure":1701082493000,"lat":1.307223333,"lon":103.792276389,"name":"OPP BLK 43","stopCode":"11181","stopId":"FERRY:11181","stopIndex":30,"stopSequence":31,"vertexType":"TRANSIT"},{"arrival":1701082565000,"departure":1701082595000,"lat":1.3080164082,"lon":103.788373155,"name":"THE STAR VISTA","stopCode":"11191","stopId":"FERRY:11191","stopIndex":31,"stopSequence":32,"vertexType":"TRANSIT"},{"arrival":1701082667000,"departure":1701082697000,"lat":1.307816389,"lon":103.784236667,"name":"BLK 19A CP","stopCode":"19011","stopId":"FERRY:19011","stopIndex":32,"stopSequence":33,"vertexType":"TRANSIT"},{"arrival":1701082754000,"departure":1701082784000,"lat":1.3096549019,"lon":103.781201807,"name":"SP SMA","stopCode":"19021","stopId":"FERRY:19021","stopIndex":33,"stopSequence":34,"vertexType":"TRANSIT"},{"arrival":1701082842000,"departure":1701082872000,"lat":1.3112341667,"lon":103.778383611,"name":"DOVER STN EXIT A","stopCode":"19031","stopId":"FERRY:19031","stopIndex":34,"stopSequence":35,"vertexType":"TRANSIT"},{"arrival":1701082930000,"departure":1701082960000,"lat":1.312359722,"lon":103.7755275,"name":"OPP SCH OF SCIENCE & TECH","stopCode":"19041","stopId":"FERRY:19041","stopIndex":35,"stopSequence":36,"vertexType":"TRANSIT"},{"arrival":1701083060000,"departure":1701083090000,"lat":1.3116951935,"lon":103.769609935,"name":"BLK 410","stopCode":"17151","stopId":"FERRY:17151","stopIndex":36,"stopSequence":37,"vertexType":"TRANSIT"},{"arrival":1701083134000,"departure":1701083164000,"lat":1.312409936,"lon":103.766854769,"name":"BLK 455","stopCode":"17161","stopId":"FERRY:17161","stopIndex":37,"stopSequence":38,"vertexType":"TRANSIT"}],"legGeometry":{"length":195,"points":"_a_GgsoxR`@@j@H`ATrBt@jCbAND|@\\fAh@pB`B??r@j@jB~@r@^LV?b@mAdBo@b@IN??MP????KP_@z@[jAGTELAD?@AB?@CFAFABABa@zAg@`BQ|@Ct@AL?N@H@V@NJtAJfA@F@T@JPtBd@fEJp@DZRnABz@G~@I|@Uz@??[hASl@iBpDMTMXqB|DIPA@CDABo@jA?@??CB?@??CBOX??MVCDCD_@v@CDCDGLINeFzJA@ABA@?@A?ADIN??CD????A@IPoAbCg@hA]lAKZYnBIrAB~@?B?????BBvA?B@D?DBb@@Pj@vJB\\Ff@D^?F?@BJ?F?B???@?D@HBr@@d@FpABd@NfDH|@@Z@B?B?@?@????@N???h@?Z?t@?d@AXIl@Kj@ERI^CJ?@?@ABCH?@??????ABCHA@?BKZIVw@|AA@??????????A@A@CD_@f@????a@h@MLMLEBCBQPy@j@mAl@cA`@uAb@oAb@E@"},"mode":"BUS","numIntermediateStops":10,"pathway":false,"realTime":false,"rentedBike":false,"route":"106","routeId":"106","routeLongName":"TTS BUS 106","routeShortName":"106","routeType":3,"serviceDate":"20231127","startTime":1701082318000,"steps":[],"to":{"arrival":1701083221000,"departure":1701083222000,"lat":1.3149739927,"lon":103.765026983,"name":"CLEMENTI STN EXIT A","stopCode":"17171","stopId":"FERRY:17171","stopIndex":38,"stopSequence":39,"vertexType":"TRANSIT"},"transitLeg":true,"tripId":"106-2-3008"},{"agencyTimeZoneOffset":28800000,"arrivalDelay":0,"departureDelay":0,"distance":73.47,"duration":65,"endTime":1701083287000,"from":{"arrival":1701083221000,"departure":1701083222000,"lat":1.3149739927,"lon":103.765026983,"name":"CLEMENTI STN EXIT A","stopCode":"17171","stopId":"FERRY:17171","stopIndex":38,"stopSequence":39,"vertexType":"TRANSIT"},"interlineWithPreviousLeg":false,"intermediateStops":[],"legGeometry":{"length":6,"points":"qy_GkrixR@@SFq@TMDDb@"},"mode":"WALK","numIntermediateStops":1,"pathway":false,"realTime":false,"rentedBike":false,"route":"","startTime":1701083222000,"steps":[{"absoluteDirection":"WEST","area":false,"bogusName":true,"distance":73.47,"elevation":[],"lat":1.314973993,"lon":103.7650269829,"relativeDirection":"DEPART","stayOn":false,"streetName":"path"}],"to":{"arrival":1701083287000,"lat":1.3153533074,"lon":103.7646518527,"name":"Destination","orig":"","vertexType":"NORMAL"},"transitLeg":false}],"startTime":1701080178000,"tooSloped":false,"transfers":1,"transitTime":2493,"waitingTime":352,"walkDistance":288.7309398407,"walkLimitExceeded":false,"walkTime":264}],"to":{"lat":1.3153533074,"lon":103.7646518527,"name":"Destination","orig":"","vertexType":"NORMAL"}},"requestParameters":{"arriveBy":"false","date":"11-27-2023","fromPlace":"1.3077992153179,103.850652211289","maxTransfers":"3","maxWalkDistance":"1000","mode":"TRANSIT,WALK","numItineraries":"3","otherThanPreferredRoutesPenalty":"0","preferredRoutes":"1__CC,1__DT,1__EW,1__NE,1__NS,1__PE,1__PW,1__SE,1__SS,1__SW,1__CG,1__BP","showIntermediateStops":"true","time":"6:09pm","toPlace":"1.31535330743269,103.764651852737","transferPenalty":"1","waitAtBeginningFactor":"0.5","walkReluctance":"2"}}],"user_exist_in_db":true},{"index":1,"Itinerary":[[1.2931,103.852],"Merlion Park","Fifth Season's Kolkata Beckons","The Clementi Mall"],"POICategories":[["NA","NA","NA"],["nonfood","Parks","City Parks"],["food","NA","NA"],["nonfood","Shopping","Mall"]],"VehicleMode":"Public Transport","Coords":[[1.2931,103.852],[1.2861885928,103.85415714],[1.3082766366,103.8510258281],[1.3153533074,103.7646518527]],"StartTimePOI":[["Fri, 22 Sep 2023 10:00:00 GMT"],["Fri, 22 Sep 2023 11:29:57 GMT"],["Fri, 22 Sep 2023 13:21:30 GMT"]],"ReachTimePOI":[["Fri, 22 Sep 2023 10:29:57 GMT"],["Fri, 22 Sep 2023 12:21:30 GMT"],["Fri, 22 Sep 2023 15:07:50 GMT"]],"LeaveTimePOI":[["Fri, 22 Sep 2023 11:29:57 GMT"],["Fri, 22 Sep 2023 13:21:30 GMT"],["Fri, 22 Sep 2023 16:07:50 GMT"]],"TotalTime":"6h 7min","Total distance(km)":4.7939952029,"Routes":[{"debugOutput":{"pathCalculationTime":22,"pathTimes":[7,8,7],"precalculationTime":47,"renderingTime":1,"timedOut":false,"totalTime":70},"elevationMetadata":{"ellipsoidToGeoidDifference":7.3773084369,"geoidElevation":false},"plan":{"date":1701079740000,"from":{"lat":1.2931,"lon":103.852,"name":"Origin","orig":"","vertexType":"NORMAL"},"itineraries":[{"duration":450,"elevationGained":0,"elevationLost":0,"endTime":1701080209000,"fare":"0.99","legs":[{"agencyTimeZoneOffset":28800000,"arrivalDelay":0,"departureDelay":0,"distance":86.153,"duration":65,"endTime":1701079824000,"from":{"departure":1701079759000,"lat":1.2931,"lon":103.852,"name":"Origin","orig":"","vertexType":"NORMAL"},"interlineWithPreviousLeg":false,"intermediateStops":[],"legGeometry":{"length":4,"points":"yp{F}qzxRXm@[k@f@]"},"mode":"WALK","numIntermediateStops":1,"pathway":false,"realTime":false,"rentedBike":false,"route":"","startTime":1701079759000,"steps":[{"absoluteDirection":"SOUTHEAST","area":false,"bogusName":false,"distance":86.153,"elevation":[],"lat":1.2930931031,"lon":103.8519960097,"relativeDirection":"DEPART","stayOn":false,"streetName":"path"}],"to":{"arrival":1701079824000,"departure":1701079825000,"lat":1.2929048315,"lon":103.852596374,"name":"CITY HALL MRT STATION","stopCode":"EW13","stopId":"FERRY:EW13","stopIndex":12,"stopSequence":13,"vertexType":"TRANSIT"},"transitLeg":false},{"agencyId":"SMRT","agencyName":"SMRT Corporation","agencyTimeZoneOffset":28800000,"agencyUrl":"http:\/\/www.smrt.com.sg\/","arrivalDelay":0,"departureDelay":0,"distance":1005.5185254056,"duration":83,"endTime":1701079908000,"from":{"arrival":1701079824000,"departure":1701079825000,"lat":1.2929048315,"lon":103.852596374,"name":"CITY HALL MRT STATION","stopCode":"EW13","stopId":"FERRY:EW13","stopIndex":12,"stopSequence":13,"vertexType":"TRANSIT"},"interlineWithPreviousLeg":false,"intermediateStops":[],"legGeometry":{"length":45,"points":"}o{FcvzxRnDsBPIPGp@Wd@KdAQr@E`BAhAJfATl@Rl@VPH^Th@`@v@j@j@`@r@`@FDLFPHNFRHNDRHXHH@RFB@JBr@PTFb@Jh@LH@RDH@^DNBT@~GZN@f@BJ?"},"mode":"SUBWAY","numIntermediateStops":1,"pathway":false,"realTime":false,"rentedBike":false,"route":"EW","routeId":"EW","routeLongName":"EAST WEST LINE","routeShortName":"EW","routeType":1,"serviceDate":"20231127","startTime":1701079825000,"steps":[],"to":{"arrival":1701079908000,"departure":1701079908000,"lat":1.2839332621,"lon":103.851463066,"name":"RAFFLES PLACE MRT STATION","stopCode":"EW14","stopId":"FERRY:EW14","stopIndex":13,"stopSequence":14,"vertexType":"TRANSIT"},"transitLeg":true,"tripId":"EW-2-4004"},{"agencyTimeZoneOffset":28800000,"arrivalDelay":0,"departureDelay":0,"distance":166.2514512484,"duration":10,"endTime":1701079918000,"from":{"arrival":1701079908000,"departure":1701079908000,"lat":1.2839332621,"lon":103.851463066,"name":"RAFFLES PLACE MRT STATION","stopCode":"EW14","stopId":"FERRY:EW14","stopIndex":13,"stopSequence":14,"vertexType":"TRANSIT"},"interlineWithPreviousLeg":false,"intermediateStops":[],"legGeometry":{"length":2,"points":"qwyFsnzxRnCeG"},"mode":"WALK","numIntermediateStops":1,"pathway":false,"realTime":false,"rentedBike":false,"route":"","startTime":1701079908000,"steps":[{"absoluteDirection":"SOUTHEAST","area":false,"bogusName":false,"distance":166.2514512484,"elevation":[],"lat":1.2839332621,"lon":103.851463066,"relativeDirection":"DEPART","stayOn":false,"streetName":"Transfer"}],"to":{"arrival":1701079918000,"departure":1701079919000,"lat":1.2832171808,"lon":103.852775893,"name":"OUE BAYFRONT","vertexType":"NORMAL"},"transitLeg":false},{"agencyTimeZoneOffset":28800000,"arrivalDelay":0,"departureDelay":0,"distance":367.176,"duration":290,"endTime":1701080209000,"from":{"arrival":1701079918000,"departure":1701079919000,"lat":1.2832152682,"lon":103.8527816048,"name":"path","vertexType":"NORMAL"},"interlineWithPreviousLeg":false,"intermediateStops":[],"legGeometry":{"length":23,"points":"asyF{vzxRi@My@SYGGGCCc@]u@Qe@AY?QEWKECAAACACOGaBg@MCSKKIg@Ow@K"},"mode":"WALK","numIntermediateStops":1,"pathway":false,"realTime":false,"rentedBike":false,"route":"","startTime":1701079919000,"steps":[{"absoluteDirection":"NORTH","area":false,"bogusName":true,"distance":367.176,"elevation":[],"lat":1.2832152682,"lon":103.8527816048,"relativeDirection":"LEFT","stayOn":false,"streetName":"path"}],"to":{"arrival":1701080209000,"lat":1.2861885928,"lon":103.85415714,"name":"Destination","orig":"","vertexType":"NORMAL"},"transitLeg":false}],"startTime":1701079759000,"tooSloped":false,"transfers":0,"transitTime":83,"waitingTime":2,"walkDistance":453.3752406,"walkLimitExceeded":false,"walkTime":365},{"duration":531,"elevationGained":0,"elevationLost":0,"endTime":1701080285000,"fare":"0.99","legs":[{"agencyTimeZoneOffset":28800000,"arrivalDelay":0,"departureDelay":0,"distance":86.153,"duration":65,"endTime":1701079819000,"from":{"departure":1701079754000,"lat":1.2931,"lon":103.852,"name":"Origin","orig":"","vertexType":"NORMAL"},"interlineWithPreviousLeg":false,"intermediateStops":[],"legGeometry":{"length":4,"points":"yp{F}qzxRXm@[k@f@]"},"mode":"WALK","numIntermediateStops":1,"pathway":false,"realTime":false,"rentedBike":false,"route":"","startTime":1701079754000,"steps":[{"absoluteDirection":"SOUTHEAST","area":false,"bogusName":false,"distance":86.153,"elevation":[],"lat":1.2930931031,"lon":103.8519960097,"relativeDirection":"DEPART","stayOn":false,"streetName":"path"}],"to":{"arrival":1701079819000,"departure":1701079820000,"lat":1.2929048315,"lon":103.852596374,"name":"CITY HALL MRT STATION","stopCode":"NS25","stopId":"FERRY:NS25","stopIndex":23,"stopSequence":25,"vertexType":"TRANSIT"},"transitLeg":false},{"agencyId":"SMRT","agencyName":"SMRT Corporation","agencyTimeZoneOffset":28800000,"agencyUrl":"http:\/\/www.smrt.com.sg\/","arrivalDelay":0,"departureDelay":0,"distance":1005.5185254056,"duration":82,"endTime":1701079902000,"from":{"arrival":1701079819000,"departure":1701079820000,"lat":1.2929048315,"lon":103.852596374,"name":"CITY HALL MRT STATION","stopCode":"NS25","stopId":"FERRY:NS25","stopIndex":23,"stopSequence":25,"vertexType":"TRANSIT"},"interlineWithPreviousLeg":false,"intermediateStops":[],"legGeometry":{"length":65,"points":"io{FguzxR??~BsA\\SRK`@QRGXKZGREXG^EJA`@CZAR?X?V@T@V@^D\\FZFVFn@RNFVJPJl@ZhAl@b@TRJp@VB@JDHBFBB@@???@@JBB@JBdAVn@P`@JF@HBH@JBj@JD@J@RBPBF@L@J?B@l@BjADjAFvBHbAD"},"mode":"SUBWAY","numIntermediateStops":1,"pathway":false,"realTime":false,"rentedBike":false,"route":"NS","routeId":"NS","routeLongName":"NORTH SOUTH LINE","routeShortName":"NS","routeType":1,"serviceDate":"20231127","startTime":1701079820000,"steps":[],"to":{"arrival":1701079902000,"departure":1701079903000,"lat":1.2839332621,"lon":103.851463066,"name":"RAFFLES PLACE MRT STATION","stopCode":"NS26","stopId":"FERRY:NS26","stopIndex":24,"stopSequence":26,"vertexType":"TRANSIT"},"transitLeg":true,"tripId":"NS-2-3146"},{"agencyTimeZoneOffset":28800000,"arrivalDelay":0,"departureDelay":0,"distance":484.766,"duration":382,"endTime":1701080285000,"from":{"arrival":1701079902000,"departure":1701079903000,"lat":1.2839332621,"lon":103.851463066,"name":"RAFFLES PLACE MRT STATION","stopCode":"NS26","stopId":"FERRY:NS26","stopIndex":24,"stopSequence":26,"vertexType":"TRANSIT"},"interlineWithPreviousLeg":false,"intermediateStops":[],"legGeometry":{"length":24,"points":"qwyFsnzxR]k@t@wDReAYGGGCCc@]u@Qe@AY?QEWKECAAACACOGaBg@MCSKKIg@Ow@K"},"mode":"WALK","numIntermediateStops":1,"pathway":false,"realTime":false,"rentedBike":false,"route":"","startTime":1701079903000,"steps":[{"absoluteDirection":"NORTHEAST","area":false,"bogusName":true,"distance":484.766,"elevation":[],"lat":1.283933262,"lon":103.851463067,"relativeDirection":"DEPART","stayOn":false,"streetName":"path"}],"to":{"arrival":1701080285000,"lat":1.2861885928,"lon":103.85415714,"name":"Destination","orig":"","vertexType":"NORMAL"},"transitLeg":false}],"startTime":1701079754000,"tooSloped":false,"transfers":0,"transitTime":82,"waitingTime":2,"walkDistance":571.0103533805,"walkLimitExceeded":false,"walkTime":447},{"duration":816,"elevationGained":0,"elevationLost":0,"endTime":1701080602000,"fare":"0.99","legs":[{"agencyTimeZoneOffset":28800000,"arrivalDelay":0,"departureDelay":0,"distance":459.179,"duration":390,"endTime":1701080176000,"from":{"departure":1701079786000,"lat":1.2931,"lon":103.852,"name":"Origin","orig":"","vertexType":"NORMAL"},"interlineWithPreviousLeg":false,"intermediateStops":[],"legGeometry":{"length":27,"points":"yp{F}qzxRXm@[k@f@]??@m@KEKGUKa@SGeCA_@EeACAOIaAi@EACAG@CCc@UTe@BGCA_@SYMAB"},"mode":"WALK","numIntermediateStops":1,"pathway":false,"realTime":false,"rentedBike":false,"route":"","startTime":1701079786000,"steps":[{"absoluteDirection":"SOUTHEAST","area":false,"bogusName":false,"distance":459.179,"elevation":[],"lat":1.2930931031,"lon":103.8519960097,"relativeDirection":"DEPART","stayOn":false,"streetName":"path"}],"to":{"arrival":1701080176000,"departure":1701080177000,"lat":1.2942869418,"lon":103.855038094,"name":"ESPLANADE STN EXIT F","stopCode":"01619","stopId":"FERRY:01619","stopIndex":25,"stopSequence":26,"vertexType":"TRANSIT"},"transitLeg":false},{"agencyId":"SBST","agencyName":"SBS Transit","agencyTimeZoneOffset":28800000,"agencyUrl":"http:\/\/www.sbstransit.com.sg\/","arrivalDelay":0,"departureDelay":0,"distance":466.9886832806,"duration":86,"endTime":1701080263000,"from":{"arrival":1701080176000,"departure":1701080177000,"lat":1.2942869418,"lon":103.855038094,"name":"ESPLANADE STN EXIT F","stopCode":"01619","stopId":"FERRY:01619","stopIndex":25,"stopSequence":26,"vertexType":"TRANSIT"},"interlineWithPreviousLeg":false,"intermediateStops":[],"legGeometry":{"length":14,"points":"ox{Fsd{xRx@b@RVt@y@j@cAt@eBP[hBbAzAt@vCfAv@Tj@PhB^d@F"},"mode":"BUS","numIntermediateStops":1,"pathway":false,"realTime":false,"rentedBike":false,"route":"100","routeId":"100","routeLongName":"SBST BUS 100","routeShortName":"100","routeType":3,"serviceDate":"20231127","startTime":1701080177000,"steps":[],"to":{"arrival":1701080263000,"departure":1701080264000,"lat":1.2901061123,"lon":103.85464007,"name":"AFT ESPLANADE STN EXIT D","stopCode":"02029","stopId":"FERRY:02029","stopIndex":26,"stopSequence":27,"vertexType":"TRANSIT"},"transitLeg":true,"tripId":"100-1-3005"},{"agencyTimeZoneOffset":28800000,"arrivalDelay":0,"departureDelay":0,"distance":437.243,"duration":338,"endTime":1701080602000,"from":{"arrival":1701080263000,"departure":1701080264000,"lat":1.2901061123,"lon":103.85464007,"name":"AFT ESPLANADE STN EXIT D","stopCode":"02029","stopId":"FERRY:02029","stopIndex":26,"stopSequence":27,"vertexType":"TRANSIT"},"interlineWithPreviousLeg":false,"intermediateStops":[],"legGeometry":{"length":12,"points":"a~zFyb{xRF@XDpAN\\FhALxGn@jDZD@j@HH@f@F"},"mode":"WALK","numIntermediateStops":1,"pathway":false,"realTime":false,"rentedBike":false,"route":"","startTime":1701080264000,"steps":[{"absoluteDirection":"SOUTH","area":false,"bogusName":true,"distance":437.243,"elevation":[],"lat":1.2900912988,"lon":103.8546941293,"relativeDirection":"DEPART","stayOn":false,"streetName":"path"}],"to":{"arrival":1701080602000,"lat":1.2861885928,"lon":103.85415714,"name":"Destination","orig":"","vertexType":"NORMAL"},"transitLeg":false}],"startTime":1701079786000,"tooSloped":false,"transfers":0,"transitTime":86,"waitingTime":2,"walkDistance":896.6768872098,"walkLimitExceeded":false,"walkTime":728}],"to":{"lat":1.2861885928,"lon":103.85415714,"name":"Destination","orig":"","vertexType":"NORMAL"}},"requestParameters":{"arriveBy":"false","date":"11-27-2023","fromPlace":"1.2931,103.852","maxTransfers":"3","maxWalkDistance":"600","mode":"TRANSIT,WALK","numItineraries":"3","otherThanPreferredRoutesPenalty":"0","preferredRoutes":"1__CC,1__DT,1__EW,1__NE,1__NS,1__PE,1__PW,1__SE,1__SS,1__SW,1__CG,1__BP","showIntermediateStops":"true","time":"6:09pm","toPlace":"1.28618859279801,103.854157139967","transferPenalty":"7200","waitAtBeginningFactor":"0.5","walkReluctance":"2"}},{"debugOutput":{"pathCalculationTime":12,"pathTimes":[3,4,5],"precalculationTime":58,"renderingTime":0,"timedOut":false,"totalTime":70},"elevationMetadata":{"ellipsoidToGeoidDifference":7.3773084369,"geoidElevation":false},"plan":{"date":1701079740000,"from":{"lat":1.2861885928,"lon":103.85415714,"name":"Origin","orig":"","vertexType":"NORMAL"},"itineraries":[{"duration":996,"elevationGained":0,"elevationLost":0,"endTime":1701080993000,"fare":"0.99","legs":[{"agencyTimeZoneOffset":28800000,"arrivalDelay":0,"departureDelay":0,"distance":191.818,"duration":157,"endTime":1701080154000,"from":{"departure":1701079997000,"lat":1.2861885928,"lon":103.85415714,"name":"Origin","orig":"","vertexType":"NORMAL"},"interlineWithPreviousLeg":false,"intermediateStops":[],"legGeometry":{"length":9,"points":"{ezFi~zxRg@GEDq@n@JHl@NLBnAVx@X"},"mode":"WALK","numIntermediateStops":1,"pathway":false,"realTime":false,"rentedBike":false,"route":"","startTime":1701079997000,"steps":[{"absoluteDirection":"NORTH","area":false,"bogusName":false,"distance":191.818,"elevation":[],"lat":1.2862269418,"lon":103.8539744101,"relativeDirection":"DEPART","stayOn":false,"streetName":"path"}],"to":{"arrival":1701080154000,"departure":1701080155000,"lat":1.2856184095,"lon":103.853422232,"name":"FULLERTON SQ","stopCode":"03011","stopId":"FERRY:03011","stopIndex":24,"stopSequence":25,"vertexType":"TRANSIT"},"transitLeg":false},{"agencyId":"SBST","agencyName":"SBS Transit","agencyTimeZoneOffset":28800000,"agencyUrl":"http:\/\/www.sbstransit.com.sg\/","arrivalDelay":0,"departureDelay":0,"distance":2778.3174196046,"duration":583,"endTime":1701080738000,"from":{"arrival":1701080154000,"departure":1701080155000,"lat":1.2856184095,"lon":103.853422232,"name":"FULLERTON SQ","stopCode":"03011","stopId":"FERRY:03011","stopIndex":24,"stopSequence":25,"vertexType":"TRANSIT"},"interlineWithPreviousLeg":false,"intermediateStops":[{"arrival":1701080242000,"departure":1701080272000,"lat":1.2909559235,"lon":103.854534194,"name":"ESPLANADE BRIDGE","stopCode":"02111","stopId":"FERRY:02111","stopIndex":25,"stopSequence":26,"vertexType":"TRANSIT"},{"arrival":1701080358000,"departure":1701080388000,"lat":1.2952725917,"lon":103.855336862,"name":"AFT RAFFLES HOTEL","stopCode":"01611","stopId":"FERRY:01611","stopIndex":26,"stopSequence":27,"vertexType":"TRANSIT"},{"arrival":1701080417000,"departure":1701080447000,"lat":1.2969588889,"lon":103.856556111,"name":"OPP SHAW TWRS","stopCode":"01621","stopId":"FERRY:01621","stopIndex":27,"stopSequence":28,"vertexType":"TRANSIT"},{"arrival":1701080490000,"departure":1701080520000,"lat":1.2988646544,"lon":103.857345836,"name":"BUGIS STN EXIT D","stopCode":"01541","stopId":"FERRY:01541","stopIndex":28,"stopSequence":29,"vertexType":"TRANSIT"},{"arrival":1701080578000,"departure":1701080608000,"lat":1.3017197581,"lon":103.854613227,"name":"FU LU SHOU CPLX","stopCode":"07551","stopId":"FERRY:07551","stopIndex":29,"stopSequence":30,"vertexType":"TRANSIT"},{"arrival":1701080651000,"departure":1701080681000,"lat":1.3036564437,"lon":103.852573233,"name":"ROCHOR STN","stopCode":"07531","stopId":"FERRY:07531","stopIndex":30,"stopSequence":31,"vertexType":"TRANSIT"}],"legGeometry":{"length":8,"points":"abzF{zzxRk`@}E_Z_DoIsF}J}CyP`PcKvKaNxT"},"mode":"BUS","numIntermediateStops":7,"pathway":false,"realTime":false,"rentedBike":false,"route":"57","routeId":"57","routeLongName":"SBST BUS 57","routeShortName":"57","routeType":3,"serviceDate":"20231127","startTime":1701080155000,"steps":[],"to":{"arrival":1701080738000,"departure":1701080738000,"lat":1.3060641152,"lon":103.849087515,"name":"LITTLE INDIA STN EXIT A","stopCode":"40011","stopId":"FERRY:40011","stopIndex":31,"stopSequence":32,"vertexType":"TRANSIT"},"transitLeg":true,"tripId":"57-2-3004"},{"agencyTimeZoneOffset":28800000,"arrivalDelay":0,"departureDelay":0,"distance":97.6050536873,"duration":10,"endTime":1701080748000,"from":{"arrival":1701080738000,"departure":1701080738000,"lat":1.3060641152,"lon":103.849087515,"name":"LITTLE INDIA STN EXIT A","stopCode":"40011","stopId":"FERRY:40011","stopIndex":31,"stopSequence":32,"vertexType":"TRANSIT"},"interlineWithPreviousLeg":false,"intermediateStops":[],"legGeometry":{"length":2,"points":"{a~Fw_zxRgCoB"},"mode":"WALK","numIntermediateStops":1,"pathway":false,"realTime":false,"rentedBike":false,"route":"","startTime":1701080738000,"steps":[{"absoluteDirection":"NORTHEAST","area":false,"bogusName":false,"distance":97.6050536873,"elevation":[],"lat":1.3060641152,"lon":103.849087515,"relativeDirection":"DEPART","stayOn":false,"streetName":"Transfer"}],"to":{"arrival":1701080748000,"departure":1701080749000,"lat":1.3067411301,"lon":103.849646366,"name":"LITTLE INDIA MRT STATION","vertexType":"NORMAL"},"transitLeg":false},{"agencyTimeZoneOffset":28800000,"arrivalDelay":0,"departureDelay":0,"distance":282.484,"duration":244,"endTime":1701080993000,"from":{"arrival":1701080748000,"departure":1701080749000,"lat":1.30674113,"lon":103.849646366,"name":"path","vertexType":"NORMAL"},"interlineWithPreviousLeg":false,"intermediateStops":[],"legGeometry":{"length":12,"points":"cf~FgczxRwCeBR_@PJGJs@e@?AUSC?CCcBiALM"},"mode":"WALK","numIntermediateStops":1,"pathway":false,"realTime":false,"rentedBike":false,"route":"","startTime":1701080749000,"steps":[{"absoluteDirection":"NORTHEAST","area":false,"bogusName":true,"distance":282.484,"elevation":[],"lat":1.30674113,"lon":103.849646366,"relativeDirection":"CONTINUE","stayOn":false,"streetName":"path"}],"to":{"arrival":1701080993000,"lat":1.3082766366,"lon":103.8510258281,"name":"Destination","orig":"","vertexType":"NORMAL"},"transitLeg":false}],"startTime":1701079997000,"tooSloped":false,"transfers":0,"transitTime":583,"waitingTime":2,"walkDistance":474.6241804407,"walkLimitExceeded":false,"walkTime":411},{"duration":1031,"elevationGained":0,"elevationLost":0,"endTime":1701080851000,"fare":"0.99","legs":[{"agencyTimeZoneOffset":28800000,"arrivalDelay":0,"departureDelay":0,"distance":484.766,"duration":383,"endTime":1701080203000,"from":{"departure":1701079820000,"lat":1.2861885928,"lon":103.85415714,"name":"Origin","orig":"","vertexType":"NORMAL"},"interlineWithPreviousLeg":false,"intermediateStops":[],"legGeometry":{"length":24,"points":"{ezFi~zxRv@Jf@NJHRJLB`Bf@NF@B@B@@DBVJPDX?d@@t@Pb@\\BBFFXFSdAu@vD\\j@"},"mode":"WALK","numIntermediateStops":1,"pathway":false,"realTime":false,"rentedBike":false,"route":"","startTime":1701079820000,"steps":[{"absoluteDirection":"SOUTH","area":false,"bogusName":false,"distance":484.766,"elevation":[],"lat":1.2862269418,"lon":103.8539744101,"relativeDirection":"DEPART","stayOn":false,"streetName":"path"}],"to":{"arrival":1701080203000,"departure":1701080204000,"lat":1.2839332621,"lon":103.851463066,"name":"RAFFLES PLACE MRT STATION","stopCode":"NS26","stopId":"FERRY:NS26","stopIndex":2,"stopSequence":3,"vertexType":"TRANSIT"},"transitLeg":false},{"agencyId":"SMRT","agencyName":"SMRT Corporation","agencyTimeZoneOffset":28800000,"agencyUrl":"http:\/\/www.smrt.com.sg\/","arrivalDelay":0,"departureDelay":0,"distance":1970.6679050871,"duration":191,"endTime":1701080395000,"from":{"arrival":1701080203000,"departure":1701080204000,"lat":1.2839332621,"lon":103.851463066,"name":"RAFFLES PLACE MRT STATION","stopCode":"NS26","stopId":"FERRY:NS26","stopIndex":2,"stopSequence":3,"vertexType":"TRANSIT"},"interlineWithPreviousLeg":false,"intermediateStops":[{"arrival":1701080286000,"departure":1701080316000,"lat":1.2929048315,"lon":103.852596374,"name":"CITY HALL MRT STATION","stopCode":"NS25","stopId":"FERRY:NS25","stopIndex":3,"stopSequence":4,"vertexType":"TRANSIT"}],"legGeometry":{"length":64,"points":"owyFiozxRcAEmFSiAGm@Ei@Gm@Ke@K]IoBg@s@Se@Oo@WYMOIEAAA??CCEAECGCCCIEKGgAm@a@S]MUIICICc@Ka@IWESCc@Ce@Ck@?a@BI?Q@a@D_@FSBa@JQF_@JUJYLk@ZwBnA????eE`COJo@`@sBvAiIrFaBrAuAbBaAvAgAzBe@zA{A|G"},"mode":"SUBWAY","numIntermediateStops":2,"pathway":false,"realTime":false,"rentedBike":false,"route":"NS","routeId":"NS","routeLongName":"NORTH SOUTH LINE","routeShortName":"NS","routeType":1,"serviceDate":"20231127","startTime":1701080204000,"steps":[],"to":{"arrival":1701080395000,"departure":1701080395000,"lat":1.2986887229,"lon":103.846122838,"name":"DHOBY GHAUT MRT STATION","stopCode":"NS24","stopId":"FERRY:NS24","stopIndex":4,"stopSequence":5,"vertexType":"TRANSIT"},"transitLeg":true,"tripId":"NS-1-4014"},{"agencyTimeZoneOffset":28800000,"arrivalDelay":0,"departureDelay":0,"distance":132.7833508889,"duration":20,"endTime":1701080415000,"from":{"arrival":1701080395000,"departure":1701080395000,"lat":1.2986887229,"lon":103.846122838,"name":"DHOBY GHAUT MRT STATION","stopCode":"NS24","stopId":"FERRY:NS24","stopIndex":4,"stopSequence":5,"vertexType":"TRANSIT"},"interlineWithPreviousLeg":false,"intermediateStops":[],"legGeometry":{"length":2,"points":"ws|FgmyxR{DtC"},"mode":"WALK","numIntermediateStops":1,"pathway":false,"realTime":false,"rentedBike":false,"route":"","startTime":1701080395000,"steps":[{"absoluteDirection":"NORTHWEST","area":false,"bogusName":false,"distance":132.7833508889,"elevation":[],"lat":1.2986887229,"lon":103.846122838,"relativeDirection":"DEPART","stayOn":false,"streetName":"Transfer"}],"to":{"arrival":1701080415000,"departure":1701080526000,"lat":1.2996206158,"lon":103.845375944,"name":"DHOBY GHAUT MRT STATION","stopCode":"NE6","stopId":"FERRY:NE6","stopIndex":4,"stopSequence":6,"vertexType":"TRANSIT"},"transitLeg":false},{"agencyId":"SBST","agencyName":"SBS Transit","agencyTimeZoneOffset":28800000,"agencyUrl":"http:\/\/www.sbstransit.com.sg\/","arrivalDelay":0,"departureDelay":0,"distance":923.1791690431,"duration":80,"endTime":1701080606000,"from":{"arrival":1701080415000,"departure":1701080526000,"lat":1.2996206158,"lon":103.845375944,"name":"DHOBY GHAUT MRT STATION","stopCode":"NE6","stopId":"FERRY:NE6","stopIndex":4,"stopSequence":6,"vertexType":"TRANSIT"},"interlineWithPreviousLeg":false,"intermediateStops":[],"legGeometry":{"length":34,"points":"iz|FggyxRuAm@gXwLCACACCCACACACACACACASK[O[QYO[QYQYSYQACCACACCCAAACCCACCAA{B_B^V}CyB"},"mode":"SUBWAY","numIntermediateStops":1,"pathway":false,"realTime":false,"rentedBike":false,"route":"NE","routeId":"NE","routeLongName":"NORTH EAST LINE","routeShortName":"NE","routeType":1,"serviceDate":"20231127","startTime":1701080526000,"steps":[],"to":{"arrival":1701080606000,"departure":1701080607000,"lat":1.3067411301,"lon":103.849646366,"name":"LITTLE INDIA MRT STATION","stopCode":"NE7","stopId":"FERRY:NE7","stopIndex":5,"stopSequence":7,"vertexType":"TRANSIT"},"transitLeg":true,"tripId":"NE-1-4015"},{"agencyTimeZoneOffset":28800000,"arrivalDelay":0,"departureDelay":0,"distance":282.484,"duration":244,"endTime":1701080851000,"from":{"arrival":1701080606000,"departure":1701080607000,"lat":1.3067411301,"lon":103.849646366,"name":"LITTLE INDIA MRT STATION","stopCode":"NE7","stopId":"FERRY:NE7","stopIndex":5,"stopSequence":7,"vertexType":"TRANSIT"},"interlineWithPreviousLeg":false,"intermediateStops":[],"legGeometry":{"length":12,"points":"cf~FgczxRwCeBR_@PJGJs@e@?AUSC?CCcBiALM"},"mode":"WALK","numIntermediateStops":1,"pathway":false,"realTime":false,"rentedBike":false,"route":"","startTime":1701080607000,"steps":[{"absoluteDirection":"NORTHEAST","area":false,"bogusName":true,"distance":282.484,"elevation":[],"lat":1.30674113,"lon":103.849646366,"relativeDirection":"DEPART","stayOn":false,"streetName":"path"}],"to":{"arrival":1701080851000,"lat":1.3082766366,"lon":103.8510258281,"name":"Destination","orig":"","vertexType":"NORMAL"},"transitLeg":false}],"startTime":1701079820000,"tooSloped":false,"transfers":1,"transitTime":271,"waitingTime":113,"walkDistance":767.5939849513,"walkLimitExceeded":false,"walkTime":647},{"duration":1066,"elevationGained":0,"elevationLost":0,"endTime":1701080960000,"fare":"0.99","legs":[{"agencyTimeZoneOffset":28800000,"arrivalDelay":0,"departureDelay":0,"distance":191.818,"duration":157,"endTime":1701080051000,"from":{"departure":1701079894000,"lat":1.2861885928,"lon":103.85415714,"name":"Origin","orig":"","vertexType":"NORMAL"},"interlineWithPreviousLeg":false,"intermediateStops":[],"legGeometry":{"length":9,"points":"{ezFi~zxRg@GEDq@n@JHl@NLBnAVx@X"},"mode":"WALK","numIntermediateStops":1,"pathway":false,"realTime":false,"rentedBike":false,"route":"","startTime":1701079894000,"steps":[{"absoluteDirection":"NORTH","area":false,"bogusName":false,"distance":191.818,"elevation":[],"lat":1.2862269418,"lon":103.8539744101,"relativeDirection":"DEPART","stayOn":false,"streetName":"path"}],"to":{"arrival":1701080051000,"departure":1701080052000,"lat":1.2856184095,"lon":103.853422232,"name":"FULLERTON SQ","stopCode":"03011","stopId":"FERRY:03011","stopIndex":22,"stopSequence":23,"vertexType":"TRANSIT"},"transitLeg":false},{"agencyId":"SBST","agencyName":"SBS Transit","agencyTimeZoneOffset":28800000,"agencyUrl":"http:\/\/www.sbstransit.com.sg\/","arrivalDelay":0,"departureDelay":0,"distance":2524.4045458177,"duration":569,"endTime":1701080621000,"from":{"arrival":1701080051000,"departure":1701080052000,"lat":1.2856184095,"lon":103.853422232,"name":"FULLERTON SQ","stopCode":"03011","stopId":"FERRY:03011","stopIndex":22,"stopSequence":23,"vertexType":"TRANSIT"},"interlineWithPreviousLeg":false,"intermediateStops":[{"arrival":1701080138000,"departure":1701080168000,"lat":1.2909559235,"lon":103.854534194,"name":"ESPLANADE BRIDGE","stopCode":"02111","stopId":"FERRY:02111","stopIndex":23,"stopSequence":24,"vertexType":"TRANSIT"},{"arrival":1701080240000,"departure":1701080270000,"lat":1.2939544417,"lon":103.851390966,"name":"CAPITOL BLDG","stopCode":"04111","stopId":"FERRY:04111","stopIndex":24,"stopSequence":25,"vertexType":"TRANSIT"},{"arrival":1701080328000,"departure":1701080358000,"lat":1.2961854409,"lon":103.8495803,"name":"SMU","stopCode":"04121","stopId":"FERRY:04121","stopIndex":25,"stopSequence":26,"vertexType":"TRANSIT"},{"arrival":1701080416000,"departure":1701080446000,"lat":1.2992144445,"lon":103.849103292,"name":"SCH OF THE ARTS","stopCode":"08079","stopId":"FERRY:08079","stopIndex":26,"stopSequence":27,"vertexType":"TRANSIT"},{"arrival":1701080474000,"departure":1701080504000,"lat":1.3009969906,"lon":103.849810187,"name":"PEACE CTR","stopCode":"07011","stopId":"FERRY:07011","stopIndex":27,"stopSequence":28,"vertexType":"TRANSIT"},{"arrival":1701080548000,"departure":1701080578000,"lat":1.3037235457,"lon":103.850036757,"name":"SELEGIE CTR","stopCode":"07021","stopId":"FERRY:07021","stopIndex":28,"stopSequence":29,"vertexType":"TRANSIT"}],"legGeometry":{"length":75,"points":"{azFi{zxRMG{Bg@MC[Mo@MsOyA_C[qB]y@S??MCyAa@q@p@QVQLeCdCi@hAg@dAk@bAg@|@a@r@M\\oA|BEFaBxC}@dB[|@_CkAS?O@KDUR[b@]`@A@A@UR[R]P{@f@{@l@oB`Cu@EUEsAgAkBaB??m@i@q@WmGiA??A?q@M]Gq@A_AGsECI?KAgAEk@G??EA_@Ig@KWO[QkAq@iAi@i@a@w@_@OI????"},"mode":"BUS","numIntermediateStops":7,"pathway":false,"realTime":false,"rentedBike":false,"route":"131","routeId":"131","routeLongName":"SBST BUS 131","routeShortName":"131","routeType":3,"serviceDate":"20231127","startTime":1701080052000,"steps":[],"to":{"arrival":1701080621000,"departure":1701080622000,"lat":1.305720833,"lon":103.851205833,"name":"TEKKA CTR","stopCode":"07031","stopId":"FERRY:07031","stopIndex":29,"stopSequence":30,"vertexType":"TRANSIT"},"transitLeg":true,"tripId":"131-2-3004"},{"agencyTimeZoneOffset":28800000,"arrivalDelay":0,"departureDelay":0,"distance":369.612,"duration":338,"endTime":1701080960000,"from":{"arrival":1701080621000,"departure":1701080622000,"lat":1.305720833,"lon":103.851205833,"name":"TEKKA CTR","stopCode":"07031","stopId":"FERRY:07031","stopIndex":29,"stopSequence":30,"vertexType":"TRANSIT"},"interlineWithPreviousLeg":false,"intermediateStops":[],"legGeometry":{"length":23,"points":"w_~FamzxRULg@W}@fAOVKGOKa@j@OGA@i@Wc@YKNQKMNQMCAKBYQa@YSMUZOR"},"mode":"WALK","numIntermediateStops":1,"pathway":false,"realTime":false,"rentedBike":false,"route":"","startTime":1701080622000,"steps":[{"absoluteDirection":"NORTHWEST","area":false,"bogusName":true,"distance":369.612,"elevation":[],"lat":1.3057238342,"lon":103.8512107157,"relativeDirection":"DEPART","stayOn":false,"streetName":"path"}],"to":{"arrival":1701080960000,"lat":1.3082766366,"lon":103.8510258281,"name":"Destination","orig":"","vertexType":"NORMAL"},"transitLeg":false}],"startTime":1701079894000,"tooSloped":false,"transfers":0,"transitTime":569,"waitingTime":2,"walkDistance":561.9187217887,"walkLimitExceeded":false,"walkTime":495}],"to":{"lat":1.3082766366,"lon":103.8510258281,"name":"Destination","orig":"","vertexType":"NORMAL"}},"requestParameters":{"arriveBy":"false","date":"11-27-2023","fromPlace":"1.28618859279801,103.854157139967","maxTransfers":"3","maxWalkDistance":"992.2493663108941","mode":"TRANSIT,WALK","numItineraries":"3","otherThanPreferredRoutesPenalty":"0","preferredRoutes":"1__CC,1__DT,1__EW,1__NE,1__NS,1__PE,1__PW,1__SE,1__SS,1__SW,1__CG,1__BP","showIntermediateStops":"true","time":"6:09pm","toPlace":"1.3082766366481,103.851025828125","transferPenalty":"2500","waitAtBeginningFactor":"0.5","walkReluctance":"8"}},{"debugOutput":{"pathCalculationTime":52,"pathTimes":[22,21,9],"precalculationTime":59,"renderingTime":1,"timedOut":false,"totalTime":112},"elevationMetadata":{"ellipsoidToGeoidDifference":7.3773084369,"geoidElevation":false},"plan":{"date":1701079740000,"from":{"lat":1.3082766366,"lon":103.8510258281,"name":"Origin","orig":"","vertexType":"NORMAL"},"itineraries":[{"duration":1414,"elevationGained":0,"elevationLost":0,"endTime":1701081383000,"fare":"1.60","legs":[{"agencyTimeZoneOffset":28800000,"arrivalDelay":0,"departureDelay":0,"distance":282.484,"duration":244,"endTime":1701080213000,"from":{"departure":1701079969000,"lat":1.3082766366,"lon":103.8510258281,"name":"Origin","orig":"","vertexType":"NORMAL"},"interlineWithPreviousLeg":false,"intermediateStops":[],"legGeometry":{"length":12,"points":"eo~FmkzxRMLbBhABBB?TR?@r@d@FKQKS^vCdB"},"mode":"WALK","numIntermediateStops":1,"pathway":false,"realTime":false,"rentedBike":false,"route":"","startTime":1701079969000,"steps":[{"absoluteDirection":"NORTHWEST","area":false,"bogusName":false,"distance":282.484,"elevation":[],"lat":1.3081969884,"lon":103.8509582864,"relativeDirection":"DEPART","stayOn":false,"streetName":"path"}],"to":{"arrival":1701080213000,"departure":1701080214000,"lat":1.30674113,"lon":103.849646366,"name":"path","vertexType":"NORMAL"},"transitLeg":false},{"agencyTimeZoneOffset":28800000,"arrivalDelay":0,"departureDelay":0,"distance":118.3911364647,"duration":20,"endTime":1701080234000,"from":{"arrival":1701080213000,"departure":1701080214000,"lat":1.3067411301,"lon":103.849646366,"name":"LITTLE INDIA MRT STATION","vertexType":"NORMAL"},"interlineWithPreviousLeg":false,"intermediateStops":[],"legGeometry":{"length":2,"points":"cf~FgczxRcAhE"},"mode":"WALK","numIntermediateStops":1,"pathway":false,"realTime":false,"rentedBike":false,"route":"","startTime":1701080214000,"steps":[{"absoluteDirection":"WEST","area":false,"bogusName":false,"distance":118.3911364647,"elevation":[],"lat":1.3067411301,"lon":103.849646366,"relativeDirection":"SLIGHTLY_LEFT","stayOn":false,"streetName":"Transfer"}],"to":{"arrival":1701080234000,"departure":1701080234000,"lat":1.3070847334,"lon":103.848638356,"name":"LITTLE INDIA MRT STATION","stopCode":"DT12","stopId":"FERRY:DT12","stopIndex":23,"stopSequence":24,"vertexType":"TRANSIT"},"transitLeg":false},{"agencyId":"SBST","agencyName":"SBS Transit","agencyTimeZoneOffset":28800000,"agencyUrl":"http:\/\/www.sbstransit.com.sg\/","arrivalDelay":0,"departureDelay":0,"distance":4008.208715348,"duration":307,"endTime":1701080541000,"from":{"arrival":1701080234000,"departure":1701080234000,"lat":1.3070847334,"lon":103.848638356,"name":"LITTLE INDIA MRT STATION","stopCode":"DT12","stopId":"FERRY:DT12","stopIndex":23,"stopSequence":24,"vertexType":"TRANSIT"},"interlineWithPreviousLeg":false,"intermediateStops":[{"arrival":1701080292000,"departure":1701080322000,"lat":1.3136036044,"lon":103.838053808,"name":"NEWTON MRT STATION","stopCode":"DT11","stopId":"FERRY:DT11","stopIndex":24,"stopSequence":25,"vertexType":"TRANSIT"},{"arrival":1701080415000,"departure":1701080445000,"lat":1.320013418,"lon":103.825933658,"name":"STEVENS MRT STATION","stopCode":"DT10","stopId":"FERRY:DT10","stopIndex":25,"stopSequence":26,"vertexType":"TRANSIT"}],"legGeometry":{"length":31,"points":"qg~Fi|yxR]`@iDlEkEzDwCnCoB~D{ElOgBhIkBnFkBdCgBpBOPmCzBuAt@iDhB_E`DiB~AoAzCgJv^_AfFYvCYfEQrAELkAlDiBlEsAbFwBjLw@zG_@~FCvI"},"mode":"SUBWAY","numIntermediateStops":3,"pathway":false,"realTime":false,"rentedBike":false,"route":"DT","routeId":"DT","routeLongName":"DOWNTOWN LINE","routeShortName":"DT","routeType":1,"serviceDate":"20231127","startTime":1701080234000,"steps":[],"to":{"arrival":1701080541000,"departure":1701080541000,"lat":1.3224709714,"lon":103.816330498,"name":"BOTANIC GARDENS MRT STATION","stopCode":"DT9","stopId":"FERRY:DT9","stopIndex":26,"stopSequence":27,"vertexType":"TRANSIT"},"transitLeg":true,"tripId":"DT-1-6001"},{"agencyTimeZoneOffset":28800000,"arrivalDelay":0,"departureDelay":0,"distance":168.881050165,"duration":20,"endTime":1701080561000,"from":{"arrival":1701080541000,"departure":1701080541000,"lat":1.3224709714,"lon":103.816330498,"name":"BOTANIC GARDENS MRT STATION","stopCode":"DT9","stopId":"FERRY:DT9","stopIndex":26,"stopSequence":27,"vertexType":"TRANSIT"},"interlineWithPreviousLeg":false,"intermediateStops":[],"legGeometry":{"length":2,"points":"mhaGassxRbAhH"},"mode":"WALK","numIntermediateStops":1,"pathway":false,"realTime":false,"rentedBike":false,"route":"","startTime":1701080541000,"steps":[{"absoluteDirection":"WEST","area":false,"bogusName":false,"distance":168.881050165,"elevation":[],"lat":1.3224709714,"lon":103.816330498,"relativeDirection":"DEPART","stayOn":false,"streetName":"Transfer"}],"to":{"arrival":1701080561000,"departure":1701080623000,"lat":1.3221330248,"lon":103.814849398,"name":"BOTANIC GARDENS MRT STATION","stopCode":"CC19","stopId":"FERRY:CC19","stopIndex":17,"stopSequence":19,"vertexType":"TRANSIT"},"transitLeg":false},{"agencyId":"SMRT","agencyName":"SMRT Corporation","agencyTimeZoneOffset":28800000,"agencyUrl":"http:\/\/www.smrt.com.sg\/","arrivalDelay":0,"departureDelay":0,"distance":3218.1544995455,"duration":329,"endTime":1701080952000,"from":{"arrival":1701080561000,"departure":1701080623000,"lat":1.3221330248,"lon":103.814849398,"name":"BOTANIC GARDENS MRT STATION","stopCode":"CC19","stopId":"FERRY:CC19","stopIndex":17,"stopSequence":19,"vertexType":"TRANSIT"},"interlineWithPreviousLeg":false,"intermediateStops":[{"arrival":1701080706000,"departure":1701080736000,"lat":1.3175882328,"lon":103.807427549,"name":"FARRER ROAD MRT STATION","stopCode":"CC20","stopId":"FERRY:CC20","stopIndex":18,"stopSequence":20,"vertexType":"TRANSIT"},{"arrival":1701080849000,"departure":1701080879000,"lat":1.3122402963,"lon":103.796399122,"name":"HOLLAND VILLAGE MRT STATION","stopCode":"CC21","stopId":"FERRY:CC21","stopIndex":19,"stopSequence":21,"vertexType":"TRANSIT"}],"legGeometry":{"length":98,"points":"ceaGgksxR`ChBh@b@XRd@Zd@Zh@`@RPHHXTTTV`@Zh@Rh@Pn@Nr@Fl@Df@@^?h@?f@Cr@Aj@?j@@f@Dj@Hd@Jf@L`@Ph@Vf@Vb@NRVX\\`@rE`F@B`BdBRVb@d@NNHFh@j@vCxCPPRRFHPRHHT\\T^Tl@Nf@Jn@Fl@Db@?ZAnG?nA@X@ZJhAP`AZp@JVT`@T`@lApBT`@`AdC^xAVfAb@bBTp@Pb@LTRb@h@fABDbC`FtApCP\\PZXb@X`@VZ^`@^^VT`@\\bFnE|@t@RNp@b@b@THDVLhF~B"},"mode":"SUBWAY","numIntermediateStops":3,"pathway":false,"realTime":false,"rentedBike":false,"route":"CC","routeId":"CC","routeLongName":"CIRCLE LINE","routeShortName":"CC","routeType":1,"serviceDate":"20231127","startTime":1701080623000,"steps":[],"to":{"arrival":1701080952000,"departure":1701080952000,"lat":1.3066345041,"lon":103.790709404,"name":"BUONA VISTA MRT STATION","stopCode":"CC22","stopId":"FERRY:CC22","stopIndex":20,"stopSequence":22,"vertexType":"TRANSIT"},"transitLeg":true,"tripId":"CC-1-4006"},{"agencyTimeZoneOffset":28800000,"arrivalDelay":0,"departureDelay":0,"distance":104.1773767184,"duration":20,"endTime":1701080972000,"from":{"arrival":1701080952000,"departure":1701080952000,"lat":1.3066345041,"lon":103.790709404,"name":"BUONA VISTA MRT STATION","stopCode":"CC22","stopId":"FERRY:CC22","stopIndex":20,"stopSequence":22,"vertexType":"TRANSIT"},"interlineWithPreviousLeg":false,"intermediateStops":[],"legGeometry":{"length":2,"points":"me~F{rnxR}BhC"},"mode":"WALK","numIntermediateStops":1,"pathway":false,"realTime":false,"rentedBike":false,"route":"","startTime":1701080952000,"steps":[{"absoluteDirection":"NORTHWEST","area":false,"bogusName":false,"distance":104.1773767184,"elevation":[],"lat":1.3066345041,"lon":103.790709404,"relativeDirection":"DEPART","stayOn":false,"streetName":"Transfer"}],"to":{"arrival":1701080972000,"departure":1701081032000,"lat":1.3072658086,"lon":103.790016971,"name":"BUONA VISTA MRT STATION","stopCode":"EW21","stopId":"FERRY:EW21","stopIndex":20,"stopSequence":21,"vertexType":"TRANSIT"},"transitLeg":false},{"agencyId":"SMRT","agencyName":"SMRT Corporation","agencyTimeZoneOffset":28800000,"agencyUrl":"http:\/\/www.smrt.com.sg\/","arrivalDelay":0,"departureDelay":0,"distance":2897.2023588807,"duration":275,"endTime":1701081307000,"from":{"arrival":1701080972000,"departure":1701081032000,"lat":1.3072658086,"lon":103.790016971,"name":"BUONA VISTA MRT STATION","stopCode":"EW21","stopId":"FERRY:EW21","stopIndex":20,"stopSequence":21,"vertexType":"TRANSIT"},"interlineWithPreviousLeg":false,"intermediateStops":[{"arrival":1701081142000,"departure":1701081172000,"lat":1.3114547506,"lon":103.778584386,"name":"DOVER MRT STATION","stopCode":"EW22","stopId":"FERRY:EW22","stopIndex":21,"stopSequence":22,"vertexType":"TRANSIT"}],"legGeometry":{"length":133,"points":"}h~FonnxR??MdCE|@Eh@Gj@S|AEh@IxAUlF}@hKWv@[v@oNdXiC|EEFaAjBGJGNINGNILGNGNA@ELGNGPENENGPCNEPEPCNCPCPCPAPANAPAPAPAP?P?P?P?P??@P@P?P@P@P@P|@rN?@@L@P@P@P@Ph@zK?@@N@P@P@P?N@P?P@P?D?JAP?PAP?PAPCPAPCPAPENCPCPENEPCNEPGNENGPGNGNILGNABGJILINCBEHKLILKLKLKLKLKJMJKLMJMJMHMJMJMHMHOHMHOHOFOHOFIBEBOFOFQDOFqBp@UF"},"mode":"SUBWAY","numIntermediateStops":2,"pathway":false,"realTime":false,"rentedBike":false,"route":"EW","routeId":"EW","routeLongName":"EAST WEST LINE","routeShortName":"EW","routeType":1,"serviceDate":"20231127","startTime":1701081032000,"steps":[],"to":{"arrival":1701081307000,"departure":1701081307000,"lat":1.3151998618,"lon":103.765213512,"name":"CLEMENTI MRT STATION","stopCode":"EW23","stopId":"FERRY:EW23","stopIndex":22,"stopSequence":23,"vertexType":"TRANSIT"},"transitLeg":true,"tripId":"EW-2-4005"},{"agencyTimeZoneOffset":28800000,"arrivalDelay":0,"departureDelay":0,"distance":32.5692677176,"duration":10,"endTime":1701081317000,"from":{"arrival":1701081307000,"departure":1701081307000,"lat":1.3151998618,"lon":103.765213512,"name":"CLEMENTI MRT STATION","stopCode":"EW23","stopId":"FERRY:EW23","stopIndex":22,"stopSequence":23,"vertexType":"TRANSIT"},"interlineWithPreviousLeg":false,"intermediateStops":[],"legGeometry":{"length":2,"points":"}z_GqsixRj@d@"},"mode":"WALK","numIntermediateStops":1,"pathway":false,"realTime":false,"rentedBike":false,"route":"","startTime":1701081307000,"steps":[{"absoluteDirection":"SOUTHWEST","area":false,"bogusName":false,"distance":32.5692677176,"elevation":[],"lat":1.3151998618,"lon":103.765213512,"relativeDirection":"DEPART","stayOn":false,"streetName":"Transfer"}],"to":{"arrival":1701081317000,"departure":1701081318000,"lat":1.3149739927,"lon":103.765026983,"name":"CLEMENTI STN EXIT A","vertexType":"NORMAL"},"transitLeg":false},{"agencyTimeZoneOffset":28800000,"arrivalDelay":0,"departureDelay":0,"distance":73.47,"duration":65,"endTime":1701081383000,"from":{"arrival":1701081317000,"departure":1701081318000,"lat":1.314973993,"lon":103.7650269829,"name":"path","vertexType":"NORMAL"},"interlineWithPreviousLeg":false,"intermediateStops":[],"legGeometry":{"length":6,"points":"qy_GkrixR@@SFq@TMDDb@"},"mode":"WALK","numIntermediateStops":1,"pathway":false,"realTime":false,"rentedBike":false,"route":"","startTime":1701081318000,"steps":[{"absoluteDirection":"WEST","area":false,"bogusName":true,"distance":73.47,"elevation":[],"lat":1.314973993,"lon":103.7650269829,"relativeDirection":"SLIGHTLY_RIGHT","stayOn":false,"streetName":"path"}],"to":{"arrival":1701081383000,"lat":1.3153533074,"lon":103.7646518527,"name":"Destination","orig":"","vertexType":"NORMAL"},"transitLeg":false}],"startTime":1701079969000,"tooSloped":false,"transfers":2,"transitTime":911,"waitingTime":124,"walkDistance":356.2652781854,"walkLimitExceeded":false,"walkTime":379},{"duration":1802,"elevationGained":0,"elevationLost":0,"endTime":1701081578000,"fare":"1.60","legs":[{"agencyTimeZoneOffset":28800000,"arrivalDelay":0,"departureDelay":0,"distance":282.484,"duration":244,"endTime":1701080020000,"from":{"departure":1701079776000,"lat":1.3082766366,"lon":103.8510258281,"name":"Origin","orig":"","vertexType":"NORMAL"},"interlineWithPreviousLeg":false,"intermediateStops":[],"legGeometry":{"length":12,"points":"eo~FmkzxRMLbBhABBB?TR?@r@d@FKQKS^vCdB"},"mode":"WALK","numIntermediateStops":1,"pathway":false,"realTime":false,"rentedBike":false,"route":"","startTime":1701079776000,"steps":[{"absoluteDirection":"NORTHWEST","area":false,"bogusName":false,"distance":282.484,"elevation":[],"lat":1.3081969884,"lon":103.8509582864,"relativeDirection":"DEPART","stayOn":false,"streetName":"path"}],"to":{"arrival":1701080020000,"departure":1701080021000,"lat":1.3067411301,"lon":103.849646366,"name":"LITTLE INDIA MRT STATION","stopCode":"NE7","stopId":"FERRY:NE7","stopIndex":10,"stopSequence":11,"vertexType":"TRANSIT"},"transitLeg":false},{"agencyId":"SBST","agencyName":"SBS Transit","agencyTimeZoneOffset":28800000,"agencyUrl":"http:\/\/www.sbstransit.com.sg\/","arrivalDelay":0,"departureDelay":0,"distance":3416.9192581058,"duration":409,"endTime":1701080430000,"from":{"arrival":1701080020000,"departure":1701080021000,"lat":1.3067411301,"lon":103.849646366,"name":"LITTLE INDIA MRT STATION","stopCode":"NE7","stopId":"FERRY:NE7","stopIndex":10,"stopSequence":11,"vertexType":"TRANSIT"},"interlineWithPreviousLeg":false,"intermediateStops":[{"arrival":1701080096000,"departure":1701080126000,"lat":1.2996206158,"lon":103.845375944,"name":"DHOBY GHAUT MRT STATION","stopCode":"NE6","stopId":"FERRY:NE6","stopIndex":11,"stopSequence":12,"vertexType":"TRANSIT"},{"arrival":1701080234000,"departure":1701080264000,"lat":1.2887102315,"lon":103.846610946,"name":"CLARKE QUAY MRT STATION","stopCode":"NE5","stopId":"FERRY:NE5","stopIndex":12,"stopSequence":13,"vertexType":"TRANSIT"},{"arrival":1701080313000,"departure":1701080343000,"lat":1.2840949166,"lon":103.843250231,"name":"CHINATOWN MRT STATION","stopCode":"NE4","stopId":"FERRY:NE4","stopIndex":13,"stopSequence":14,"vertexType":"TRANSIT"}],"legGeometry":{"length":262,"points":"if~F}bzxRhChBlBtABBB@@@BBB@BBB@@@??BBB@XPVRXNXPZPXNZNRJB@B@B@B@B@B@B@BBB@??B@??fXvLrAl@f@T??JDJDHDJDHDFBB@JDFB@@JBJDJBHDJBJBJBJBJBJBJBJ@LBJ@J@J@J@L@J@J@J?L@J?J?L?J?J?L?J?JAL?JAJ?JALAJAJAJCJAJCLAJCJCJCJCJCJCHCJEJC@AJCHEJEJEHEJEHEJEHEJEdNoGHEJEHEJEHEJEJEHEJCJEHCJEJCJEJCJCJCLCJCJAJCLCJALAJALAJALAJAL?JAL?JAL?J?L?J@L?L?J@L?J@L@J@L@J@JBL@JBJ@JBJBJ@JBJBJBJBJBzBf@NBzD~@JBJBJDD@JDJBHDJDJD^XXNd@Zj@j@j@h@X\\|@`A|@r@TTTTb@^JHpC|B`At@zBjB|AnADBBBDBBBBDDBBBDBBBDBPNRLTNPJBBDBDBBBDBB@DBDBBBD@t@d@DBBBDBD@BBDBBBDBD@BB@@RLTNRN@@AASOA?@?RNRNRNPPRNPPPPNNB@BBBBBDB@?@BBDBFHBBBD??nBtBNP"},"mode":"SUBWAY","numIntermediateStops":4,"pathway":false,"realTime":false,"rentedBike":false,"route":"NE","routeId":"NE","routeLongName":"NORTH EAST LINE","routeShortName":"NE","routeType":1,"serviceDate":"20231127","startTime":1701080021000,"steps":[],"to":{"arrival":1701080430000,"departure":1701080430000,"lat":1.2797397068,"lon":103.839513521,"name":"OUTRAM PARK MRT STATION","stopCode":"NE3","stopId":"FERRY:NE3","stopIndex":14,"stopSequence":16,"vertexType":"TRANSIT"},"transitLeg":true,"tripId":"NE-2-4008"},{"agencyTimeZoneOffset":28800000,"arrivalDelay":0,"departureDelay":0,"distance":207.0781461064,"duration":20,"endTime":1701080450000,"from":{"arrival":1701080430000,"departure":1701080430000,"lat":1.2797397068,"lon":103.839513521,"name":"OUTRAM PARK MRT STATION","stopCode":"NE3","stopId":"FERRY:NE3","stopIndex":14,"stopSequence":16,"vertexType":"TRANSIT"},"interlineWithPreviousLeg":false,"intermediateStops":[],"legGeometry":{"length":2,"points":"i}xF}cxxReJhB"},"mode":"WALK","numIntermediateStops":1,"pathway":false,"realTime":false,"rentedBike":false,"route":"","startTime":1701080430000,"steps":[{"absoluteDirection":"NORTH","area":false,"bogusName":false,"distance":207.0781461064,"elevation":[],"lat":1.2797397068,"lon":103.839513521,"relativeDirection":"DEPART","stayOn":false,"streetName":"Transfer"}],"to":{"arrival":1701080450000,"departure":1701080560000,"lat":1.2815255935,"lon":103.838985418,"name":"OUTRAM PARK MRT STATION","stopCode":"EW16","stopId":"FERRY:EW16","stopIndex":15,"stopSequence":16,"vertexType":"TRANSIT"},"transitLeg":false},{"agencyId":"SMRT","agencyName":"SMRT Corporation","agencyTimeZoneOffset":28800000,"agencyUrl":"http:\/\/www.smrt.com.sg\/","arrivalDelay":0,"departureDelay":0,"distance":9127.812433177,"duration":942,"endTime":1701081502000,"from":{"arrival":1701080450000,"departure":1701080560000,"lat":1.2815255935,"lon":103.838985418,"name":"OUTRAM PARK MRT STATION","stopCode":"EW16","stopId":"FERRY:EW16","stopIndex":15,"stopSequence":16,"vertexType":"TRANSIT"},"interlineWithPreviousLeg":false,"intermediateStops":[{"arrival":1701080682000,"departure":1701080712000,"lat":1.2862186212,"lon":103.826913425,"name":"TIONG BAHRU MRT STATION","stopCode":"EW17","stopId":"FERRY:EW17","stopIndex":16,"stopSequence":17,"vertexType":"TRANSIT"},{"arrival":1701080810000,"departure":1701080840000,"lat":1.2896750704,"lon":103.81669039,"name":"REDHILL MRT STATION","stopCode":"EW18","stopId":"FERRY:EW18","stopIndex":17,"stopSequence":18,"vertexType":"TRANSIT"},