[{"index":0,"Itinerary":[[1.2931,103.852],"Merlion Park","Little India","Fifth Season's Tangra Chinese","Fifth Season's Kolkata Beckons"],"POICategories":[["NA","NA","NA"],["nonfood","Parks","City Parks"],["nonfood","Places of Interest","Lifestyle"],["food","NA","NA"],["food","NA","NA"]],"VehicleMode":"Public Transport","Coords":[[1.2931,103.852],[1.2861885928,103.85415714],[1.3067017019,103.8517943356],[1.3077992153,103.8506522113],[1.3082766366,103.8510258281]],"StartTimePOI":[["Fri, 22 Sep 2023 10:00:00 GMT"],["Fri, 22 Sep 2023 11:29:57 GMT"],["Fri, 22 Sep 2023 13:20:38 GMT"],["Fri, 22 Sep 2023 14:23:59 GMT"]],"ReachTimePOI":[["Fri, 22 Sep 2023 10:29:57 GMT"],["Fri, 22 Sep 2023 12:20:38 GMT"],["Fri, 22 Sep 2023 13:23:59 GMT"],["Fri, 22 Sep 2023 14:24:55 GMT"]],"LeaveTimePOI":[["Fri, 22 Sep 2023 11:29:57 GMT"],["Fri, 22 Sep 2023 13:20:38 GMT"],["Fri, 22 Sep 2023 14:23:59 GMT"],["Fri, 22 Sep 2023 15:24:55 GMT"]],"TotalTime":"5h 24min","Total distance(km)":3.8892349624,"Routes":[{"debugOutput":{"pathCalculationTime":22,"pathTimes":[8,7,7],"precalculationTime":45,"renderingTime":0,"timedOut":false,"totalTime":67},"elevationMetadata":{"ellipsoidToGeoidDifference":7.3773084369,"geoidElevation":false},"plan":{"date":1701079740000,"from":{"lat":1.2931,"lon":103.852,"name":"Origin","orig":"","vertexType":"NORMAL"},"itineraries":[{"duration":450,"elevationGained":0,"elevationLost":0,"endTime":1701080209000,"fare":"0.99","legs":[{"agencyTimeZoneOffset":28800000,"arrivalDelay":0,"departureDelay":0,"distance":86.153,"duration":65,"endTime":1701079824000,"from":{"departure":1701079759000,"lat":1.2931,"lon":103.852,"name":"Origin","orig":"","vertexType":"NORMAL"},"interlineWithPreviousLeg":false,"intermediateStops":[],"legGeometry":{"length":4,"points":"yp{F}qzxRXm@[k@f@]"},"mode":"WALK","numIntermediateStops":1,"pathway":false,"realTime":false,"rentedBike":false,"route":"","startTime":1701079759000,"steps":[{"absoluteDirection":"SOUTHEAST","area":false,"bogusName":false,"distance":86.153,"elevation":[],"lat":1.2930931031,"lon":103.8519960097,"relativeDirection":"DEPART","stayOn":false,"streetName":"path"}],"to":{"arrival":1701079824000,"departure":1701079825000,"lat":1.2929048315,"lon":103.852596374,"name":"CITY HALL MRT STATION","stopCode":"EW13","stopId":"FERRY:EW13","stopIndex":12,"stopSequence":13,"vertexType":"TRANSIT"},"transitLeg":false},{"agencyId":"SMRT","agencyName":"SMRT Corporation","agencyTimeZoneOffset":28800000,"agencyUrl":"http:\/\/www.smrt.com.sg\/","arrivalDelay":0,"departureDelay":0,"distance":1005.5185254056,"duration":83,"endTime":1701079908000,"from":{"arrival":1701079824000,"departure":1701079825000,"lat":1.2929048315,"lon":103.852596374,"name":"CITY HALL MRT STATION","stopCode":"EW13","stopId":"FERRY:EW13","stopIndex":12,"stopSequence":13,"vertexType":"TRANSIT"},"interlineWithPreviousLeg":false,"intermediateStops":[],"legGeometry":{"length":45,"points":"}o{FcvzxRnDsBPIPGp@Wd@KdAQr@E`BAhAJfATl@Rl@VPH^Th@`@v@j@j@`@r@`@FDLFPHNFRHNDRHXHH@RFB@JBr@PTFb@Jh@LH@RDH@^DNBT@~GZN@f@BJ?"},"mode":"SUBWAY","numIntermediateStops":1,"pathway":false,"realTime":false,"rentedBike":false,"route":"EW","routeId":"EW","routeLongName":"EAST WEST LINE","routeShortName":"EW","routeType":1,"serviceDate":"20231127","startTime":1701079825000,"steps":[],"to":{"arrival":1701079908000,"departure":1701079908000,"lat":1.2839332621,"lon":103.851463066,"name":"RAFFLES PLACE MRT STATION","stopCode":"EW14","stopId":"FERRY:EW14","stopIndex":13,"stopSequence":14,"vertexType":"TRANSIT"},"transitLeg":true,"tripId":"EW-2-4004"},{"agencyTimeZoneOffset":28800000,"arrivalDelay":0,"departureDelay":0,"distance":166.2514512484,"duration":10,"endTime":1701079918000,"from":{"arrival":1701079908000,"departure":1701079908000,"lat":1.2839332621,"lon":103.851463066,"name":"RAFFLES PLACE MRT STATION","stopCode":"EW14","stopId":"FERRY:EW14","stopIndex":13,"stopSequence":14,"vertexType":"TRANSIT"},"interlineWithPreviousLeg":false,"intermediateStops":[],"legGeometry":{"length":2,"points":"qwyFsnzxRnCeG"},"mode":"WALK","numIntermediateStops":1,"pathway":false,"realTime":false,"rentedBike":false,"route":"","startTime":1701079908000,"steps":[{"absoluteDirection":"SOUTHEAST","area":false,"bogusName":false,"distance":166.2514512484,"elevation":[],"lat":1.2839332621,"lon":103.851463066,"relativeDirection":"DEPART","stayOn":false,"streetName":"Transfer"}],"to":{"arrival":1701079918000,"departure":1701079919000,"lat":1.2832171808,"lon":103.852775893,"name":"OUE BAYFRONT","vertexType":"NORMAL"},"transitLeg":false},{"agencyTimeZoneOffset":28800000,"arrivalDelay":0,"departureDelay":0,"distance":367.176,"duration":290,"endTime":1701080209000,"from":{"arrival":1701079918000,"departure":1701079919000,"lat":1.2832152682,"lon":103.8527816048,"name":"path","vertexType":"NORMAL"},"interlineWithPreviousLeg":false,"intermediateStops":[],"legGeometry":{"length":23,"points":"asyF{vzxRi@My@SYGGGCCc@]u@Qe@AY?QEWKECAAACACOGaBg@MCSKKIg@Ow@K"},"mode":"WALK","numIntermediateStops":1,"pathway":false,"realTime":false,"rentedBike":false,"route":"","startTime":1701079919000,"steps":[{"absoluteDirection":"NORTH","area":false,"bogusName":true,"distance":367.176,"elevation":[],"lat":1.2832152682,"lon":103.8527816048,"relativeDirection":"LEFT","stayOn":false,"streetName":"path"}],"to":{"arrival":1701080209000,"lat":1.2861885928,"lon":103.85415714,"name":"Destination","orig":"","vertexType":"NORMAL"},"transitLeg":false}],"startTime":1701079759000,"tooSloped":false,"transfers":0,"transitTime":83,"waitingTime":2,"walkDistance":453.3752406,"walkLimitExceeded":false,"walkTime":365},{"duration":531,"elevationGained":0,"elevationLost":0,"endTime":1701080285000,"fare":"0.99","legs":[{"agencyTimeZoneOffset":28800000,"arrivalDelay":0,"departureDelay":0,"distance":86.153,"duration":65,"endTime":1701079819000,"from":{"departure":1701079754000,"lat":1.2931,"lon":103.852,"name":"Origin","orig":"","vertexType":"NORMAL"},"interlineWithPreviousLeg":false,"intermediateStops":[],"legGeometry":{"length":4,"points":"yp{F}qzxRXm@[k@f@]"},"mode":"WALK","numIntermediateStops":1,"pathway":false,"realTime":false,"rentedBike":false,"route":"","startTime":1701079754000,"steps":[{"absoluteDirection":"SOUTHEAST","area":false,"bogusName":false,"distance":86.153,"elevation":[],"lat":1.2930931031,"lon":103.8519960097,"relativeDirection":"DEPART","stayOn":false,"streetName":"path"}],"to":{"arrival":1701079819000,"departure":1701079820000,"lat":1.2929048315,"lon":103.852596374,"name":"CITY HALL MRT STATION","stopCode":"NS25","stopId":"FERRY:NS25","stopIndex":23,"stopSequence":25,"vertexType":"TRANSIT"},"transitLeg":false},{"agencyId":"SMRT","agencyName":"SMRT Corporation","agencyTimeZoneOffset":28800000,"agencyUrl":"http:\/\/www.smrt.com.sg\/","arrivalDelay":0,"departureDelay":0,"distance":1005.5185254056,"duration":82,"endTime":1701079902000,"from":{"arrival":1701079819000,"departure":1701079820000,"lat":1.2929048315,"lon":103.852596374,"name":"CITY HALL MRT STATION","stopCode":"NS25","stopId":"FERRY:NS25","stopIndex":23,"stopSequence":25,"vertexType":"TRANSIT"},"interlineWithPreviousLeg":false,"intermediateStops":[],"legGeometry":{"length":65,"points":"io{FguzxR??~BsA\\SRK`@QRGXKZGREXG^EJA`@CZAR?X?V@T@V@^D\\FZFVFn@RNFVJPJl@ZhAl@b@TRJp@VB@JDHBFBB@@???@@JBB@JBdAVn@P`@JF@HBH@JBj@JD@J@RBPBF@L@J?B@l@BjADjAFvBHbAD"},"mode":"SUBWAY","numIntermediateStops":1,"pathway":false,"realTime":false,"rentedBike":false,"route":"NS","routeId":"NS","routeLongName":"NORTH SOUTH LINE","routeShortName":"NS","routeType":1,"serviceDate":"20231127","startTime":1701079820000,"steps":[],"to":{"arrival":1701079902000,"departure":1701079903000,"lat":1.2839332621,"lon":103.851463066,"name":"RAFFLES PLACE MRT STATION","stopCode":"NS26","stopId":"FERRY:NS26","stopIndex":24,"stopSequence":26,"vertexType":"TRANSIT"},"transitLeg":true,"tripId":"NS-2-3146"},{"agencyTimeZoneOffset":28800000,"arrivalDelay":0,"departureDelay":0,"distance":484.766,"duration":382,"endTime":1701080285000,"from":{"arrival":1701079902000,"departure":1701079903000,"lat":1.2839332621,"lon":103.851463066,"name":"RAFFLES PLACE MRT STATION","stopCode":"NS26","stopId":"FERRY:NS26","stopIndex":24,"stopSequence":26,"vertexType":"TRANSIT"},"interlineWithPreviousLeg":false,"intermediateStops":[],"legGeometry":{"length":24,"points":"qwyFsnzxR]k@t@wDReAYGGGCCc@]u@Qe@AY?QEWKECAAACACOGaBg@MCSKKIg@Ow@K"},"mode":"WALK","numIntermediateStops":1,"pathway":false,"realTime":false,"rentedBike":false,"route":"","startTime":1701079903000,"steps":[{"absoluteDirection":"NORTHEAST","area":false,"bogusName":true,"distance":484.766,"elevation":[],"lat":1.283933262,"lon":103.851463067,"relativeDirection":"DEPART","stayOn":false,"streetName":"path"}],"to":{"arrival":1701080285000,"lat":1.2861885928,"lon":103.85415714,"name":"Destination","orig":"","vertexType":"NORMAL"},"transitLeg":false}],"startTime":1701079754000,"tooSloped":false,"transfers":0,"transitTime":82,"waitingTime":2,"walkDistance":571.0103533805,"walkLimitExceeded":false,"walkTime":447},{"duration":816,"elevationGained":0,"elevationLost":0,"endTime":1701080602000,"fare":"0.99","legs":[{"agencyTimeZoneOffset":28800000,"arrivalDelay":0,"departureDelay":0,"distance":459.179,"duration":390,"endTime":1701080176000,"from":{"departure":1701079786000,"lat":1.2931,"lon":103.852,"name":"Origin","orig":"","vertexType":"NORMAL"},"interlineWithPreviousLeg":false,"intermediateStops":[],"legGeometry":{"length":27,"points":"yp{F}qzxRXm@[k@f@]??@m@KEKGUKa@SGeCA_@EeACAOIaAi@EACAG@CCc@UTe@BGCA_@SYMAB"},"mode":"WALK","numIntermediateStops":1,"pathway":false,"realTime":false,"rentedBike":false,"route":"","startTime":1701079786000,"steps":[{"absoluteDirection":"SOUTHEAST","area":false,"bogusName":false,"distance":459.179,"elevation":[],"lat":1.2930931031,"lon":103.8519960097,"relativeDirection":"DEPART","stayOn":false,"streetName":"path"}],"to":{"arrival":1701080176000,"departure":1701080177000,"lat":1.2942869418,"lon":103.855038094,"name":"ESPLANADE STN EXIT F","stopCode":"01619","stopId":"FERRY:01619","stopIndex":25,"stopSequence":26,"vertexType":"TRANSIT"},"transitLeg":false},{"agencyId":"SBST","agencyName":"SBS Transit","agencyTimeZoneOffset":28800000,"agencyUrl":"http:\/\/www.sbstransit.com.sg\/","arrivalDelay":0,"departureDelay":0,"distance":466.9886832806,"duration":86,"endTime":1701080263000,"from":{"arrival":1701080176000,"departure":1701080177000,"lat":1.2942869418,"lon":103.855038094,"name":"ESPLANADE STN EXIT F","stopCode":"01619","stopId":"FERRY:01619","stopIndex":25,"stopSequence":26,"vertexType":"TRANSIT"},"interlineWithPreviousLeg":false,"intermediateStops":[],"legGeometry":{"length":14,"points":"ox{Fsd{xRx@b@RVt@y@j@cAt@eBP[hBbAzAt@vCfAv@Tj@PhB^d@F"},"mode":"BUS","numIntermediateStops":1,"pathway":false,"realTime":false,"rentedBike":false,"route":"100","routeId":"100","routeLongName":"SBST BUS 100","routeShortName":"100","routeType":3,"serviceDate":"20231127","startTime":1701080177000,"steps":[],"to":{"arrival":1701080263000,"departure":1701080264000,"lat":1.2901061123,"lon":103.85464007,"name":"AFT ESPLANADE STN EXIT D","stopCode":"02029","stopId":"FERRY:02029","stopIndex":26,"stopSequence":27,"vertexType":"TRANSIT"},"transitLeg":true,"tripId":"100-1-3005"},{"agencyTimeZoneOffset":28800000,"arrivalDelay":0,"departureDelay":0,"distance":437.243,"duration":338,"endTime":1701080602000,"from":{"arrival":1701080263000,"departure":1701080264000,"lat":1.2901061123,"lon":103.85464007,"name":"AFT ESPLANADE STN EXIT D","stopCode":"02029","stopId":"FERRY:02029","stopIndex":26,"stopSequence":27,"vertexType":"TRANSIT"},"interlineWithPreviousLeg":false,"intermediateStops":[],"legGeometry":{"length":12,"points":"a~zFyb{xRF@XDpAN\\FhALxGn@jDZD@j@HH@f@F"},"mode":"WALK","numIntermediateStops":1,"pathway":false,"realTime":false,"rentedBike":false,"route":"","startTime":1701080264000,"steps":[{"absoluteDirection":"SOUTH","area":false,"bogusName":true,"distance":437.243,"elevation":[],"lat":1.2900912988,"lon":103.8546941293,"relativeDirection":"DEPART","stayOn":false,"streetName":"path"}],"to":{"arrival":1701080602000,"lat":1.2861885928,"lon":103.85415714,"name":"Destination","orig":"","vertexType":"NORMAL"},"transitLeg":false}],"startTime":1701079786000,"tooSloped":false,"transfers":0,"transitTime":86,"waitingTime":2,"walkDistance":896.6768872098,"walkLimitExceeded":false,"walkTime":728}],"to":{"lat":1.2861885928,"lon":103.85415714,"name":"Destination","orig":"","vertexType":"NORMAL"}},"requestParameters":{"arriveBy":"false","date":"11-27-2023","fromPlace":"1.2931,103.852","maxTransfers":"3","maxWalkDistance":"600","mode":"TRANSIT,WALK","numItineraries":"3","otherThanPreferredRoutesPenalty":"0","preferredRoutes":"1__CC,1__DT,1__EW,1__NE,1__NS,1__PE,1__PW,1__SE,1__SS,1__SW,1__CG,1__BP","showIntermediateStops":"true","time":"6:09pm","toPlace":"1.28618859279801,103.854157139967","transferPenalty":"7200","waitAtBeginningFactor":"0.5","walkReluctance":"2"}},{"debugOutput":{"pathCalculationTime":9,"pathTimes":[3,3,3],"precalculationTime":63,"renderingTime":1,"timedOut":false,"totalTime":73},"elevationMetadata":{"ellipsoidToGeoidDifference":7.3773084369,"geoidElevation":false},"plan":{"date":1701079740000,"from":{"lat":1.2861885928,"lon":103.85415714,"name":"Origin","orig":"","vertexType":"NORMAL"},"itineraries":[{"duration":904,"elevationGained":0,"elevationLost":0,"endTime":1701080798000,"fare":"0.99","legs":[{"agencyTimeZoneOffset":28800000,"arrivalDelay":0,"departureDelay":0,"distance":191.818,"duration":157,"endTime":1701080051000,"from":{"departure":1701079894000,"lat":1.2861885928,"lon":103.85415714,"name":"Origin","orig":"","vertexType":"NORMAL"},"interlineWithPreviousLeg":false,"intermediateStops":[],"legGeometry":{"length":9,"points":"{ezFi~zxRg@GEDq@n@JHl@NLBnAVx@X"},"mode":"WALK","numIntermediateStops":1,"pathway":false,"realTime":false,"rentedBike":false,"route":"","startTime":1701079894000,"steps":[{"absoluteDirection":"NORTH","area":false,"bogusName":false,"distance":191.818,"elevation":[],"lat":1.2862269418,"lon":103.8539744101,"relativeDirection":"DEPART","stayOn":false,"streetName":"path"}],"to":{"arrival":1701080051000,"departure":1701080052000,"lat":1.2856184095,"lon":103.853422232,"name":"FULLERTON SQ","stopCode":"03011","stopId":"FERRY:03011","stopIndex":22,"stopSequence":23,"vertexType":"TRANSIT"},"transitLeg":false},{"agencyId":"SBST","agencyName":"SBS Transit","agencyTimeZoneOffset":28800000,"agencyUrl":"http:\/\/www.sbstransit.com.sg\/","arrivalDelay":0,"departureDelay":0,"distance":2524.4045458177,"duration":569,"endTime":1701080621000,"from":{"arrival":1701080051000,"departure":1701080052000,"lat":1.2856184095,"lon":103.853422232,"name":"FULLERTON SQ","stopCode":"03011","stopId":"FERRY:03011","stopIndex":22,"stopSequence":23,"vertexType":"TRANSIT"},"interlineWithPreviousLeg":false,"intermediateStops":[{"arrival":1701080138000,"departure":1701080168000,"lat":1.2909559235,"lon":103.854534194,"name":"ESPLANADE BRIDGE","stopCode":"02111","stopId":"FERRY:02111","stopIndex":23,"stopSequence":24,"vertexType":"TRANSIT"},{"arrival":1701080240000,"departure":1701080270000,"lat":1.2939544417,"lon":103.851390966,"name":"CAPITOL BLDG","stopCode":"04111","stopId":"FERRY:04111","stopIndex":24,"stopSequence":25,"vertexType":"TRANSIT"},{"arrival":1701080328000,"departure":1701080358000,"lat":1.2961854409,"lon":103.8495803,"name":"SMU","stopCode":"04121","stopId":"FERRY:04121","stopIndex":25,"stopSequence":26,"vertexType":"TRANSIT"},{"arrival":1701080416000,"departure":1701080446000,"lat":1.2992144445,"lon":103.849103292,"name":"SCH OF THE ARTS","stopCode":"08079","stopId":"FERRY:08079","stopIndex":26,"stopSequence":27,"vertexType":"TRANSIT"},{"arrival":1701080474000,"departure":1701080504000,"lat":1.3009969906,"lon":103.849810187,"name":"PEACE CTR","stopCode":"07011","stopId":"FERRY:07011","stopIndex":27,"stopSequence":28,"vertexType":"TRANSIT"},{"arrival":1701080548000,"departure":1701080578000,"lat":1.3037235457,"lon":103.850036757,"name":"SELEGIE CTR","stopCode":"07021","stopId":"FERRY:07021","stopIndex":28,"stopSequence":29,"vertexType":"TRANSIT"}],"legGeometry":{"length":75,"points":"{azFi{zxRMG{Bg@MC[Mo@MsOyA_C[qB]y@S??MCyAa@q@p@QVQLeCdCi@hAg@dAk@bAg@|@a@r@M\\oA|BEFaBxC}@dB[|@_CkAS?O@KDUR[b@]`@A@A@UR[R]P{@f@{@l@oB`Cu@EUEsAgAkBaB??m@i@q@WmGiA??A?q@M]Gq@A_AGsECI?KAgAEk@G??EA_@Ig@KWO[QkAq@iAi@i@a@w@_@OI????"},"mode":"BUS","numIntermediateStops":7,"pathway":false,"realTime":false,"rentedBike":false,"route":"131","routeId":"131","routeLongName":"SBST BUS 131","routeShortName":"131","routeType":3,"serviceDate":"20231127","startTime":1701080052000,"steps":[],"to":{"arrival":1701080621000,"departure":1701080622000,"lat":1.305720833,"lon":103.851205833,"name":"TEKKA CTR","stopCode":"07031","stopId":"FERRY:07031","stopIndex":29,"stopSequence":30,"vertexType":"TRANSIT"},"transitLeg":true,"tripId":"131-2-3004"},{"agencyTimeZoneOffset":28800000,"arrivalDelay":0,"departureDelay":0,"distance":184.997,"duration":176,"endTime":1701080798000,"from":{"arrival":1701080621000,"departure":1701080622000,"lat":1.305720833,"lon":103.851205833,"name":"TEKKA CTR","stopCode":"07031","stopId":"FERRY:07031","stopIndex":29,"stopSequence":30,"vertexType":"TRANSIT"},"interlineWithPreviousLeg":false,"intermediateStops":[],"legGeometry":{"length":20,"points":"w_~FamzxR@?UMGGi@[@?JQ@As@c@MIUM??IEOKCAIGC@MTNJGF"},"mode":"WALK","numIntermediateStops":1,"pathway":false,"realTime":false,"rentedBike":false,"route":"","startTime":1701080622000,"steps":[{"absoluteDirection":"SOUTHEAST","area":false,"bogusName":true,"distance":184.997,"elevation":[],"lat":1.3057238342,"lon":103.8512107157,"relativeDirection":"DEPART","stayOn":false,"streetName":"path"}],"to":{"arrival":1701080798000,"lat":1.3067017019,"lon":103.8517943356,"name":"Destination","orig":"","vertexType":"NORMAL"},"transitLeg":false}],"startTime":1701079894000,"tooSloped":false,"transfers":0,"transitTime":569,"waitingTime":2,"walkDistance":377.1052255545,"walkLimitExceeded":false,"walkTime":333},{"duration":1050,"elevationGained":0,"elevationLost":0,"endTime":1701080858000,"fare":"0.99","legs":[{"agencyTimeZoneOffset":28800000,"arrivalDelay":0,"departureDelay":0,"distance":367.176,"duration":291,"endTime":1701080099000,"from":{"departure":1701079808000,"lat":1.2861885928,"lon":103.85415714,"name":"Origin","orig":"","vertexType":"NORMAL"},"interlineWithPreviousLeg":false,"intermediateStops":[],"legGeometry":{"length":23,"points":"{ezFi~zxRv@Jf@NJHRJLB`Bf@NF@B@B@@DBVJPDX?d@@t@Pb@\\BBFFXFx@Rh@L"},"mode":"WALK","numIntermediateStops":1,"pathway":false,"realTime":false,"rentedBike":false,"route":"","startTime":1701079808000,"steps":[{"absoluteDirection":"SOUTH","area":false,"bogusName":false,"distance":367.176,"elevation":[],"lat":1.2862269418,"lon":103.8539744101,"relativeDirection":"DEPART","stayOn":false,"streetName":"path"}],"to":{"arrival":1701080099000,"departure":1701080100000,"lat":1.2832152682,"lon":103.8527816048,"name":"path","vertexType":"NORMAL"},"transitLeg":false},{"agencyTimeZoneOffset":28800000,"arrivalDelay":0,"departureDelay":0,"distance":166.2514512484,"duration":10,"endTime":1701080110000,"from":{"arrival":1701080099000,"departure":1701080100000,"lat":1.2832171808,"lon":103.852775893,"name":"OUE BAYFRONT","vertexType":"NORMAL"},"interlineWithPreviousLeg":false,"intermediateStops":[],"legGeometry":{"length":2,"points":"asyFyvzxRoCdG"},"mode":"WALK","numIntermediateStops":1,"pathway":false,"realTime":false,"rentedBike":false,"route":"","startTime":1701080100000,"steps":[{"absoluteDirection":"NORTHWEST","area":false,"bogusName":false,"distance":166.2514512484,"elevation":[],"lat":1.2832171808,"lon":103.852775893,"relativeDirection":"RIGHT","stayOn":false,"streetName":"Transfer"}],"to":{"arrival":1701080110000,"departure":1701080110000,"lat":1.2839332621,"lon":103.851463066,"name":"RAFFLES PLACE MRT STATION","stopCode":"EW14","stopId":"FERRY:EW14","stopIndex":19,"stopSequence":20,"vertexType":"TRANSIT"},"transitLeg":false},{"agencyId":"SMRT","agencyName":"SMRT Corporation","agencyTimeZoneOffset":28800000,"agencyUrl":"http:\/\/www.smrt.com.sg\/","arrivalDelay":0,"departureDelay":0,"distance":1885.5966438518,"duration":191,"endTime":1701080301000,"from":{"arrival":1701080110000,"departure":1701080110000,"lat":1.2839332621,"lon":103.851463066,"name":"RAFFLES PLACE MRT STATION","stopCode":"EW14","stopId":"FERRY:EW14","stopIndex":19,"stopSequence":20,"vertexType":"TRANSIT"},"interlineWithPreviousLeg":false,"intermediateStops":[{"arrival":1701080193000,"departure":1701080223000,"lat":1.2929048315,"lon":103.852596374,"name":"CITY HALL MRT STATION","stopCode":"EW13","stopId":"FERRY:EW13","stopIndex":20,"stopSequence":21,"vertexType":"TRANSIT"}],"legGeometry":{"length":73,"points":"qwyFenzxRcAGaH[c@Cq@IeAUcCo@MCa@K[IUGYKWIQGSKy@_@s@a@{@k@cAq@UMWKKE_AYgBU{ACuAJq@Lm@P_@Le@R{@f@gBbAEBYPWLSLQJYPOHQHSHMFQFODMDQDMBKBKBUBQ@[BI@Y@O?WAO?_@COAUCOCe@Ka@Ka@Oc@SYQ_@Wk@a@w@o@qDuC}EyDiDqC}@s@"},"mode":"SUBWAY","numIntermediateStops":2,"pathway":false,"realTime":false,"rentedBike":false,"route":"EW","routeId":"EW","routeLongName":"EAST WEST LINE","routeShortName":"EW","routeType":1,"serviceDate":"20231127","startTime":1701080110000,"steps":[],"to":{"arrival":1701080301000,"departure":1701080301000,"lat":1.3002476806,"lon":103.855551003,"name":"BUGIS MRT STATION","stopCode":"EW12","stopId":"FERRY:EW12","stopIndex":21,"stopSequence":22,"vertexType":"TRANSIT"},"transitLeg":true,"tripId":"EW-1-3153"},{"agencyTimeZoneOffset":28800000,"arrivalDelay":0,"departureDelay":0,"distance":178.144738556,"duration":20,"endTime":1701080321000,"from":{"arrival":1701080301000,"departure":1701080301000,"lat":1.3002476806,"lon":103.855551003,"name":"BUGIS MRT STATION","stopCode":"EW12","stopId":"FERRY:EW12","stopIndex":21,"stopSequence":22,"vertexType":"TRANSIT"},"interlineWithPreviousLeg":false,"intermediateStops":[],"legGeometry":{"length":2,"points":"o}|Feh{xRlDkG"},"mode":"WALK","numIntermediateStops":1,"pathway":false,"realTime":false,"rentedBike":false,"route":"","startTime":1701080301000,"steps":[{"absoluteDirection":"SOUTHEAST","area":false,"bogusName":false,"distance":178.144738556,"elevation":[],"lat":1.3002476806,"lon":103.855551003,"relativeDirection":"DEPART","stayOn":false,"streetName":"Transfer"}],"to":{"arrival":1701080321000,"departure":1701080425000,"lat":1.299376352,"lon":103.856895776,"name":"BUGIS MRT STATION","stopCode":"DT14","stopId":"FERRY:DT14","stopIndex":21,"stopSequence":22,"vertexType":"TRANSIT"},"transitLeg":false},{"agencyId":"SBST","agencyName":"SBS Transit","agencyTimeZoneOffset":28800000,"agencyUrl":"http:\/\/www.sbstransit.com.sg\/","arrivalDelay":0,"departureDelay":0,"distance":706.0312830738,"duration":107,"endTime":1701080532000,"from":{"arrival":1701080321000,"departure":1701080425000,"lat":1.299376352,"lon":103.856895776,"name":"BUGIS MRT STATION","stopCode":"DT14","stopId":"FERRY:DT14","stopIndex":21,"stopSequence":22,"vertexType":"TRANSIT"},"interlineWithPreviousLeg":false,"intermediateStops":[],"legGeometry":{"length":8,"points":"kx|F}p{xROJuHrHuCnCeCdB{BlAqAtAeAjD"},"mode":"SUBWAY","numIntermediateStops":1,"pathway":false,"realTime":false,"rentedBike":false,"route":"DT","routeId":"DT","routeLongName":"DOWNTOWN LINE","routeShortName":"DT","routeType":1,"serviceDate":"20231127","startTime":1701080425000,"steps":[],"to":{"arrival":1701080532000,"departure":1701080532000,"lat":1.3039345092,"lon":103.852474327,"name":"ROCHOR MRT STATION","stopCode":"DT13","stopId":"FERRY:DT13","stopIndex":22,"stopSequence":23,"vertexType":"TRANSIT"},"transitLeg":true,"tripId":"DT-1-6003"},{"agencyTimeZoneOffset":28800000,"arrivalDelay":0,"departureDelay":0,"distance":91.9838726166,"duration":10,"endTime":1701080542000,"from":{"arrival":1701080532000,"departure":1701080532000,"lat":1.3039345092,"lon":103.852474327,"name":"ROCHOR MRT STATION","stopCode":"DT13","stopId":"FERRY:DT13","stopIndex":22,"stopSequence":23,"vertexType":"TRANSIT"},"interlineWithPreviousLeg":false,"intermediateStops":[],"legGeometry":{"length":2,"points":"qt}F}tzxRgC|A"},"mode":"WALK","numIntermediateStops":1,"pathway":false,"realTime":false,"rentedBike":false,"route":"","startTime":1701080532000,"steps":[{"absoluteDirection":"NORTHWEST","area":false,"bogusName":false,"distance":91.9838726166,"elevation":[],"lat":1.3039345092,"lon":103.852474327,"relativeDirection":"DEPART","stayOn":false,"streetName":"Transfer"}],"to":{"arrival":1701080542000,"departure":1701080543000,"lat":1.3046130074,"lon":103.852000972,"name":"OPP ROCHOR STN","vertexType":"NORMAL"},"transitLeg":false},{"agencyTimeZoneOffset":28800000,"arrivalDelay":0,"departureDelay":0,"distance":347.375,"duration":315,"endTime":1701080858000,"from":{"arrival":1701080542000,"departure":1701080543000,"lat":1.3046130073,"lon":103.8520009722,"name":"path","vertexType":"NORMAL"},"interlineWithPreviousLeg":false,"intermediateStops":[],"legGeometry":{"length":33,"points":"yx}F_rzxRA?ITMh@ABWKQOU@CEE?EFEJKPm@bASKA?u@a@AAAAMAIAs@c@MIUM??IEOKCAIGC@MTNJGF"},"mode":"WALK","numIntermediateStops":1,"pathway":false,"realTime":false,"rentedBike":false,"route":"","startTime":1701080543000,"steps":[{"absoluteDirection":"NORTHEAST","area":false,"bogusName":true,"distance":347.375,"elevation":[],"lat":1.3046130073,"lon":103.8520009722,"relativeDirection":"RIGHT","stayOn":false,"streetName":"path"}],"to":{"arrival":1701080858000,"lat":1.3067017019,"lon":103.8517943356,"name":"Destination","orig":"","vertexType":"NORMAL"},"transitLeg":false}],"startTime":1701079808000,"tooSloped":false,"transfers":1,"transitTime":298,"waitingTime":106,"walkDistance":714.9107744245,"walkLimitExceeded":false,"walkTime":646},{"duration":1087,"elevationGained":0,"elevationLost":0,"endTime":1701081084000,"fare":"0.99","legs":[{"agencyTimeZoneOffset":28800000,"arrivalDelay":0,"departureDelay":0,"distance":191.818,"duration":157,"endTime":1701080154000,"from":{"departure":1701079997000,"lat":1.2861885928,"lon":103.85415714,"name":"Origin","orig":"","vertexType":"NORMAL"},"interlineWithPreviousLeg":false,"intermediateStops":[],"legGeometry":{"length":9,"points":"{ezFi~zxRg@GEDq@n@JHl@NLBnAVx@X"},"mode":"WALK","numIntermediateStops":1,"pathway":false,"realTime":false,"rentedBike":false,"route":"","startTime":1701079997000,"steps":[{"absoluteDirection":"NORTH","area":false,"bogusName":false,"distance":191.818,"elevation":[],"lat":1.2862269418,"lon":103.8539744101,"relativeDirection":"DEPART","stayOn":false,"streetName":"path"}],"to":{"arrival":1701080154000,"departure":1701080155000,"lat":1.2856184095,"lon":103.853422232,"name":"FULLERTON SQ","stopCode":"03011","stopId":"FERRY:03011","stopIndex":24,"stopSequence":25,"vertexType":"TRANSIT"},"transitLeg":false},{"agencyId":"SBST","agencyName":"SBS Transit","agencyTimeZoneOffset":28800000,"agencyUrl":"http:\/\/www.sbstransit.com.sg\/","arrivalDelay":0,"departureDelay":0,"distance":2778.3174196046,"duration":583,"endTime":1701080738000,"from":{"arrival":1701080154000,"departure":1701080155000,"lat":1.2856184095,"lon":103.853422232,"name":"FULLERTON SQ","stopCode":"03011","stopId":"FERRY:03011","stopIndex":24,"stopSequence":25,"vertexType":"TRANSIT"},"interlineWithPreviousLeg":false,"intermediateStops":[{"arrival":1701080242000,"departure":1701080272000,"lat":1.2909559235,"lon":103.854534194,"name":"ESPLANADE BRIDGE","stopCode":"02111","stopId":"FERRY:02111","stopIndex":25,"stopSequence":26,"vertexType":"TRANSIT"},{"arrival":1701080358000,"departure":1701080388000,"lat":1.2952725917,"lon":103.855336862,"name":"AFT RAFFLES HOTEL","stopCode":"01611","stopId":"FERRY:01611","stopIndex":26,"stopSequence":27,"vertexType":"TRANSIT"},{"arrival":1701080417000,"departure":1701080447000,"lat":1.2969588889,"lon":103.856556111,"name":"OPP SHAW TWRS","stopCode":"01621","stopId":"FERRY:01621","stopIndex":27,"stopSequence":28,"vertexType":"TRANSIT"},{"arrival":1701080490000,"departure":1701080520000,"lat":1.2988646544,"lon":103.857345836,"name":"BUGIS STN EXIT D","stopCode":"01541","stopId":"FERRY:01541","stopIndex":28,"stopSequence":29,"vertexType":"TRANSIT"},{"arrival":1701080578000,"departure":1701080608000,"lat":1.3017197581,"lon":103.854613227,"name":"FU LU SHOU CPLX","stopCode":"07551","stopId":"FERRY:07551","stopIndex":29,"stopSequence":30,"vertexType":"TRANSIT"},{"arrival":1701080651000,"departure":1701080681000,"lat":1.3036564437,"lon":103.852573233,"name":"ROCHOR STN","stopCode":"07531","stopId":"FERRY:07531","stopIndex":30,"stopSequence":31,"vertexType":"TRANSIT"}],"legGeometry":{"length":8,"points":"abzF{zzxRk`@}E_Z_DoIsF}J}CyP`PcKvKaNxT"},"mode":"BUS","numIntermediateStops":7,"pathway":false,"realTime":false,"rentedBike":false,"route":"57","routeId":"57","routeLongName":"SBST BUS 57","routeShortName":"57","routeType":3,"serviceDate":"20231127","startTime":1701080155000,"steps":[],"to":{"arrival":1701080738000,"departure":1701080738000,"lat":1.3060641152,"lon":103.849087515,"name":"LITTLE INDIA STN EXIT A","stopCode":"40011","stopId":"FERRY:40011","stopIndex":31,"stopSequence":32,"vertexType":"TRANSIT"},"transitLeg":true,"tripId":"57-2-3004"},{"agencyTimeZoneOffset":28800000,"arrivalDelay":0,"departureDelay":0,"distance":97.6050536873,"duration":10,"endTime":1701080748000,"from":{"arrival":1701080738000,"departure":1701080738000,"lat":1.3060641152,"lon":103.849087515,"name":"LITTLE INDIA STN EXIT A","stopCode":"40011","stopId":"FERRY:40011","stopIndex":31,"stopSequence":32,"vertexType":"TRANSIT"},"interlineWithPreviousLeg":false,"intermediateStops":[],"legGeometry":{"length":2,"points":"{a~Fw_zxRgCoB"},"mode":"WALK","numIntermediateStops":1,"pathway":false,"realTime":false,"rentedBike":false,"route":"","startTime":1701080738000,"steps":[{"absoluteDirection":"NORTHEAST","area":false,"bogusName":false,"distance":97.6050536873,"elevation":[],"lat":1.3060641152,"lon":103.849087515,"relativeDirection":"DEPART","stayOn":false,"streetName":"Transfer"}],"to":{"arrival":1701080748000,"departure":1701080749000,"lat":1.3067411301,"lon":103.849646366,"name":"LITTLE INDIA MRT STATION","vertexType":"NORMAL"},"transitLeg":false},{"agencyTimeZoneOffset":28800000,"arrivalDelay":0,"departureDelay":0,"distance":390.075,"duration":335,"endTime":1701081084000,"from":{"arrival":1701080748000,"departure":1701080749000,"lat":1.30674113,"lon":103.849646366,"name":"path","vertexType":"NORMAL"},"interlineWithPreviousLeg":false,"intermediateStops":[],"legGeometry":{"length":15,"points":"cf~FgczxRwCeBR_@PJFGPH`AsADEi@Wc@Yl@{@RUOMT[`@k@"},"mode":"WALK","numIntermediateStops":1,"pathway":false,"realTime":false,"rentedBike":false,"route":"","startTime":1701080749000,"steps":[{"absoluteDirection":"NORTHEAST","area":false,"bogusName":true,"distance":390.075,"elevation":[],"lat":1.30674113,"lon":103.849646366,"relativeDirection":"CONTINUE","stayOn":false,"streetName":"path"}],"to":{"arrival":1701081084000,"lat":1.3067017019,"lon":103.8517943356,"name":"Destination","orig":"","vertexType":"NORMAL"},"transitLeg":false}],"startTime":1701079997000,"tooSloped":false,"transfers":0,"transitTime":583,"waitingTime":2,"walkDistance":582.2734511155,"walkLimitExceeded":false,"walkTime":502}],"to":{"lat":1.3067017019,"lon":103.8517943356,"name":"Destination","orig":"","vertexType":"NORMAL"}},"requestParameters":{"arriveBy":"false","date":"11-27-2023","fromPlace":"1.28618859279801,103.854157139967","maxTransfers":"3","maxWalkDistance":"918.4110022894668","mode":"TRANSIT,WALK","numItineraries":"3","otherThanPreferredRoutesPenalty":"0","preferredRoutes":"1__CC,1__DT,1__EW,1__NE,1__NS,1__PE,1__PW,1__SE,1__SS,1__SW,1__CG,1__BP","showIntermediateStops":"true","time":"6:09pm","toPlace":"1.30670170191791,103.851794335641","transferPenalty":"2500","waitAtBeginningFactor":"0.5","walkReluctance":"8"}},{"debugOutput":{"pathCalculationTime":18,"pathTimes":[1,9,8],"precalculationTime":67,"renderingTime":0,"timedOut":false,"totalTime":85},"elevationMetadata":{"ellipsoidToGeoidDifference":7.3773084369,"geoidElevation":false},"plan":{"date":1701079740000,"from":{"lat":1.3067017019,"lon":103.8517943356,"name":"Origin","orig":"","vertexType":"NORMAL"},"itineraries":[{"duration":201,"elevationGained":0,"elevationLost":0,"endTime":1701079941000,"fare":"0.00","legs":[{"agencyTimeZoneOffset":28800000,"arrivalDelay":0,"departureDelay":0,"distance":226.173,"duration":201,"endTime":1701079941000,"from":{"departure":1701079740000,"lat":1.3067017019,"lon":103.8517943356,"name":"Origin","orig":"","vertexType":"NORMAL"},"interlineWithPreviousLeg":false,"intermediateStops":[],"legGeometry":{"length":16,"points":"we~FspzxRa@j@UZNLSTm@z@KNQKMNEHY`@UVC@C?CCQK"},"mode":"WALK","numIntermediateStops":1,"pathway":false,"realTime":false,"rentedBike":false,"route":"","startTime":1701079740000,"steps":[{"absoluteDirection":"NORTHWEST","area":false,"bogusName":false,"distance":226.173,"elevation":[],"lat":1.3066851016,"lon":103.8517814427,"relativeDirection":"DEPART","stayOn":false,"streetName":"path"}],"to":{"arrival":1701079941000,"lat":1.3077992153,"lon":103.8506522113,"name":"Destination","orig":"","vertexType":"NORMAL"},"transitLeg":false}],"startTime":1701079740000,"tooSloped":false,"transfers":0,"transitTime":0,"waitingTime":0,"walkDistance":226.3496917236,"walkLimitExceeded":false,"walkTime":201}],"to":{"lat":1.3077992153,"lon":103.8506522113,"name":"Destination","orig":"","vertexType":"NORMAL"}},"requestParameters":{"arriveBy":"false","date":"11-27-2023","fromPlace":"1.30670170191791,103.851794335641","maxTransfers":"3","maxWalkDistance":"600","mode":"TRANSIT,WALK","numItineraries":"3","otherThanPreferredRoutesPenalty":"0","preferredRoutes":"1__CC,1__DT,1__EW,1__NE,1__NS,1__PE,1__PW,1__SE,1__SS,1__SW,1__CG,1__BP","showIntermediateStops":"true","time":"6:09pm","toPlace":"1.3077992153179,103.850652211289","transferPenalty":"7200","waitAtBeginningFactor":"0.5","walkReluctance":"2"}},{"debugOutput":{"pathCalculationTime":59,"pathTimes":[59],"precalculationTime":0,"renderingTime":0,"timedOut":false,"totalTime":59},"elevationMetadata":{"ellipsoidToGeoidDifference":7.3773084369,"geoidElevation":false},"plan":{"date":1701079740000,"from":{"lat":1.3077992153,"lon":103.8506522113,"name":"Origin","orig":"","vertexType":"NORMAL"},"itineraries":[{"duration":56,"elevationGained":0,"elevationLost":0,"endTime":1701079796000,"fare":"0.00","legs":[{"agencyTimeZoneOffset":28800000,"arrivalDelay":0,"departureDelay":0,"distance":67.498,"duration":56,"endTime":1701079796000,"from":{"departure":1701079740000,"lat":1.3077992153,"lon":103.8506522113,"name":"Origin","orig":"","vertexType":"NORMAL"},"interlineWithPreviousLeg":false,"intermediateStops":[],"legGeometry":{"length":3,"points":"am~FaizxRqA}@LM"},"mode":"WALK","numIntermediateStops":1,"pathway":false,"realTime":false,"rentedBike":false,"route":"","startTime":1701079740000,"steps":[{"absoluteDirection":"NORTHEAST","area":false,"bogusName":false,"distance":67.498,"elevation":[],"lat":1.3078547714,"lon":103.8505780341,"relativeDirection":"DEPART","stayOn":false,"streetName":"path"}],"to":{"arrival":1701079796000,"lat":1.3082766366,"lon":103.8510258281,"name":"Destination","orig":"","vertexType":"NORMAL"},"transitLeg":false}],"startTime":1701079740000,"tooSloped":false,"transfers":0,"transitTime":0,"waitingTime":0,"walkDistance":67.5333383447,"walkLimitExceeded":false,"walkTime":56}],"to":{"lat":1.3082766366,"lon":103.8510258281,"name":"Destination","orig":"","vertexType":"NORMAL"}},"requestParameters":{"arriveBy":"false","date":"11-27-2023","fromPlace":"1.3077992153179,103.850652211289","ignoreRealtimeUpdates":"true","maxTransfers":"2","maxWalkDistance":"600","mode":"WALK","numItineraries":"3","showIntermediateStops":"true","time":"6:09pm","toPlace":"1.3082766366481,103.851025828125","walkReluctance":"20"}}],"user_exist_in_db":true},{"index":1,"Itinerary":[[1.2931,103.852],"Armenian Apostolic Church of St. Gregory the Illuminator","Buddha Tooth Relic Temple","elemen \u5143\u7d20","Eighteen Chefs AMK Hub"],"POICategories":[["NA","NA","NA"],["nonfood","Place of Worship ","NA"],["nonfood","Place of Worship ","Temple"],["food","NA","NA"],["food","NA","NA"]],"VehicleMode":"Public Transport","Coords":[[1.2931,103.852],[1.2930995692,103.8494005152],[1.2814943848,103.844241653],[1.2929650415,103.8593439689],[1.369193179,103.8484647756]],"StartTimePOI":[["Fri, 22 Sep 2023 10:00:00 GMT"],["Fri, 22 Sep 2023 11:05:47 GMT"],["Fri, 22 Sep 2023 12:48:04 GMT"],["Fri, 22 Sep 2023 14:35:18 GMT"]],"ReachTimePOI":[["Fri, 22 Sep 2023 10:05:47 GMT"],["Fri, 22 Sep 2023 11:48:04 GMT"],["Fri, 22 Sep 2023 13:35:18 GMT"],["Fri, 22 Sep 2023 16:10:32 GMT"]],"LeaveTimePOI":[["Fri, 22 Sep 2023 11:05:47 GMT"],["Fri, 22 Sep 2023 12:48:04 GMT"],["Fri, 22 Sep 2023 14:35:18 GMT"],["Fri, 22 Sep 2023 17:10:32 GMT"]],"TotalTime":"7h 10min","Total distance(km)":4.9525517518,"Routes":[{"debugOutput":{"pathCalculationTime":18,"pathTimes":[4,7,7],"precalculationTime":44,"renderingTime":1,"timedOut":false,"totalTime":63},"elevationMetadata":{"ellipsoidToGeoidDifference":7.3773084369,"geoidElevation":false},"plan":{"date":1701079740000,"from":{"lat":1.2931,"lon":103.852,"name":"Origin","orig":"","vertexType":"NORMAL"},"itineraries":[{"duration":347,"elevationGained":0,"elevationLost":0,"endTime":1701080087000,"fare":"0.00","legs":[{"agencyTimeZoneOffset":28800000,"arrivalDelay":0,"departureDelay":0,"distance":86.153,"duration":65,"endTime":1701079805000,"from":{"departure":1701079740000,"lat":1.2931,"lon":103.852,"name":"Origin","orig":"","vertexType":"NORMAL"},"interlineWithPreviousLeg":false,"intermediateStops":[],"legGeometry":{"length":4,"points":"yp{F}qzxRXm@[k@f@]"},"mode":"WALK","numIntermediateStops":1,"pathway":false,"realTime":false,"rentedBike":false,"route":"","startTime":1701079740000,"steps":[{"absoluteDirection":"SOUTHEAST","area":false,"bogusName":false,"distance":86.153,"elevation":[],"lat":1.2930931031,"lon":103.8519960097,"relativeDirection":"DEPART","stayOn":false,"streetName":"path"}],"to":{"arrival":1701079805000,"departure":1701079806000,"lat":1.2929049982,"lon":103.8525965871,"name":"path","vertexType":"NORMAL"},"transitLeg":false},{"agencyTimeZoneOffset":28800000,"arrivalDelay":0,"departureDelay":0,"distance":174.4674369537,"duration":10,"endTime":1701079816000,"from":{"arrival":1701079805000,"departure":1701079806000,"lat":1.2929048315,"lon":103.852596374,"name":"CITY HALL MRT STATION","vertexType":"NORMAL"},"interlineWithPreviousLeg":false,"intermediateStops":[],"legGeometry":{"length":2,"points":"so{FuuzxRbDjG"},"mode":"WALK","numIntermediateStops":1,"pathway":false,"realTime":false,"rentedBike":false,"route":"","startTime":1701079806000,"steps":[{"absoluteDirection":"SOUTHWEST","area":false,"bogusName":false,"distance":174.4674369537,"elevation":[],"lat":1.2929048315,"lon":103.852596374,"relativeDirection":"HARD_RIGHT","stayOn":false,"streetName":"Transfer"}],"to":{"arrival":1701079816000,"departure":1701079817000,"lat":1.2920822148,"lon":103.851259947,"name":"AFT CITY HALL STN EXIT B","vertexType":"NORMAL"},"transitLeg":false},{"agencyTimeZoneOffset":28800000,"arrivalDelay":0,"departureDelay":0,"distance":284.187,"duration":270,"endTime":1701080087000,"from":{"arrival":1701079816000,"departure":1701079817000,"lat":1.2920813213,"lon":103.8512593484,"name":"path","vertexType":"NORMAL"},"interlineWithPreviousLeg":false,"intermediateStops":[],"legGeometry":{"length":23,"points":"oj{FimzxRA@j@XA@A@OXA@FDB?A@o@|AABD@GNw@lBGFAAABUn@ABm@SGAKG"},"mode":"WALK","numIntermediateStops":1,"pathway":false,"realTime":false,"rentedBike":false,"route":"","startTime":1701079817000,"steps":[{"absoluteDirection":"NORTHWEST","area":false,"bogusName":true,"distance":284.187,"elevation":[],"lat":1.2920813213,"lon":103.8512593484,"relativeDirection":"RIGHT","stayOn":false,"streetName":"path"}],"to":{"arrival":1701080087000,"lat":1.2930995692,"lon":103.8494005152,"name":"Destination","orig":"","vertexType":"NORMAL"},"transitLeg":false}],"startTime":1701079740000,"tooSloped":false,"transfers":0,"transitTime":0,"waitingTime":2,"walkDistance":370.6700751773,"walkLimitExceeded":false,"walkTime":345}],"to":{"lat":1.2930995692,"lon":103.8494005152,"name":"Destination","orig":"","vertexType":"NORMAL"}},"requestParameters":{"arriveBy":"false","date":"11-27-2023","fromPlace":"1.2931,103.852","maxTransfers":"3","maxWalkDistance":"600","mode":"TRANSIT,WALK","numItineraries":"3","otherThanPreferredRoutesPenalty":"0","preferredRoutes":"1__CC,1__DT,1__EW,1__NE,1__NS,1__PE,1__PW,1__SE,1__SS,1__SW,1__CG,1__BP","showIntermediateStops":"true","time":"6:09pm","toPlace":"1.2930995691703,103.849400515214","transferPenalty":"7200","waitAtBeginningFactor":"0.5","walkReluctance":"2"}},{"debugOutput":{"pathCalculationTime":18,"pathTimes":[7,5,6],"precalculationTime":45,"renderingTime":1,"timedOut":false,"totalTime":64},"elevationMetadata":{"ellipsoidToGeoidDifference":7.3773084369,"geoidElevation":false},"plan":{"date":1701079740000,"from":{"lat":1.2930995692,"lon":103.8494005152,"name":"Origin","orig":"","vertexType":"NORMAL"},"itineraries":[{"duration":681,"elevationGained":0,"elevationLost":0,"endTime":1701080457000,"fare":"1.59","legs":[{"agencyTimeZoneOffset":28800000,"arrivalDelay":0,"departureDelay":0,"distance":102.264,"duration":96,"endTime":1701079872000,"from":{"departure":1701079776000,"lat":1.2930995692,"lon":103.8494005152,"name":"Origin","orig":"","vertexType":"NORMAL"},"interlineWithPreviousLeg":false,"intermediateStops":[],"legGeometry":{"length":9,"points":"cp{FcczxRJFF@l@R@CTo@@Cm@QA@"},"mode":"WALK","numIntermediateStops":1,"pathway":false,"realTime":false,"rentedBike":false,"route":"","startTime":1701079776000,"steps":[{"absoluteDirection":"SOUTHWEST","area":false,"bogusName":false,"distance":102.264,"elevation":[],"lat":1.2929885602,"lon":103.8496200893,"relativeDirection":"DEPART","stayOn":false,"streetName":"path"}],"to":{"arrival":1701079872000,"departure":1701079873000,"lat":1.292761324,"lon":103.849837413,"name":"GRAND PK CITY HALL","stopCode":"04149","stopId":"FERRY:04149","stopIndex":30,"stopSequence":33,"vertexType":"TRANSIT"},"transitLeg":false},{"agencyId":"GAS","agencyName":"Go-Ahead Singapore","agencyTimeZoneOffset":28800000,"agencyUrl":"http:\/\/www.go-aheadsingapore.com\/","arrivalDelay":0,"departureDelay":0,"distance":1367.6623084666,"duration":322,"endTime":1701080195000,"from":{"arrival":1701079872000,"departure":1701079873000,"lat":1.292761324,"lon":103.849837413,"name":"GRAND PK CITY HALL","stopCode":"04149","stopId":"FERRY:04149","stopIndex":30,"stopSequence":33,"vertexType":"TRANSIT"},"interlineWithPreviousLeg":false,"intermediateStops":[{"arrival":1701079916000,"departure":1701079946000,"lat":1.2904483083,"lon":103.848751235,"name":"HIGH ST CTR","stopCode":"04229","stopId":"FERRY:04229","stopIndex":31,"stopSequence":34,"vertexType":"TRANSIT"},{"arrival":1701079975000,"departure":1701080005000,"lat":1.2888271793,"lon":103.847493812,"name":"OPP CLARKE QUAY STN","stopCode":"04239","stopId":"FERRY:04239","stopIndex":32,"stopSequence":35,"vertexType":"TRANSIT"},{"arrival":1701080048000,"departure":1701080078000,"lat":1.2867642012,"lon":103.845750364,"name":"HONG LIM PK","stopCode":"05059","stopId":"FERRY:05059","stopIndex":33,"stopSequence":36,"vertexType":"TRANSIT"},{"arrival":1701080107000,"departure":1701080137000,"lat":1.2853111476,"lon":103.844550707,"name":"CHINATOWN STN EXIT E","stopCode":"05049","stopId":"FERRY:05049","stopIndex":34,"stopSequence":37,"vertexType":"TRANSIT"}],"legGeometry":{"length":31,"points":"ao{FuczxRl@TND~DvAVJhA`@JD|Ar@??FB`An@JF^HpCxB|@n@??`At@~B~ATRhBvA`BpAdA|@pAfAfClBdBrAl@j@d@`@tAfAvAdAhA|@f@`@"},"mode":"BUS","numIntermediateStops":5,"pathway":false,"realTime":false,"rentedBike":false,"route":"12e \/ 190 \/ 147","routeId":"12e","routeLongName":"GAS BUS 12e","routeShortName":"12e","routeType":3,"serviceDate":"20231127","startTime":1701079873000,"steps":[],"to":{"arrival":1701080195000,"departure":1701080196000,"lat":1.2829381913,"lon":103.842542768,"name":"NEW BRIDGE CTR","stopCode":"05039","stopId":"FERRY:05039","stopIndex":35,"stopSequence":38,"vertexType":"TRANSIT"},"transitLeg":true,"tripId":"12e-1-3001"},{"agencyTimeZoneOffset":28800000,"arrivalDelay":0,"departureDelay":0,"distance":307.577,"duration":261,"endTime":1701080457000,"from":{"arrival":1701080195000,"departure":1701080196000,"lat":1.2829381913,"lon":103.842542768,"name":"NEW BRIDGE CTR","stopCode":"05039","stopId":"FERRY:05039","stopIndex":35,"stopSequence":38,"vertexType":"TRANSIT"},"interlineWithPreviousLeg":false,"intermediateStops":[],"legGeometry":{"length":31,"points":"iqyF{vxxRACGGQIEABENWP_@BGZo@HQFOHMXk@BGBEBA@?D@\\NVJJ@BABAHIN]DKJO?ABE\\w@"},"mode":"WALK","numIntermediateStops":1,"pathway":false,"realTime":false,"rentedBike":false,"route":"","startTime":1701080196000,"steps":[{"absoluteDirection":"EAST","area":false,"bogusName":true,"distance":307.577,"elevation":[],"lat":1.282938191,"lon":103.8425427681,"relativeDirection":"DEPART","stayOn":false,"streetName":"path"}],"to":{"arrival":1701080457000,"lat":1.2814943848,"lon":103.844241653,"name":"Destination","orig":"","vertexType":"NORMAL"},"transitLeg":false}],"startTime":1701079776000,"tooSloped":false,"transfers":0,"transitTime":322,"waitingTime":2,"walkDistance":410.0804736765,"walkLimitExceeded":false,"walkTime":357},{"duration":785,"elevationGained":0,"elevationLost":0,"endTime":1701080585000,"fare":"0.99","legs":[{"agencyTimeZoneOffset":28800000,"arrivalDelay":0,"departureDelay":0,"distance":548.569,"duration":453,"endTime":1701080253000,"from":{"departure":1701079800000,"lat":1.2930995692,"lon":103.8494005152,"name":"Origin","orig":"","vertexType":"NORMAL"},"interlineWithPreviousLeg":false,"intermediateStops":[],"legGeometry":{"length":43,"points":"cp{FcczxRJFF@l@RB?@?b@R@@B?@?F?J@VFr@XXLPJ@@pAj@@@tAn@j@Vb@VFLDH@Lb@HPD@L@DD?@?B?FDPLZVVPh@ZHFLHTPn@d@GH?@"},"mode":"WALK","numIntermediateStops":1,"pathway":false,"realTime":false,"rentedBike":false,"route":"","startTime":1701079800000,"steps":[{"absoluteDirection":"SOUTHWEST","area":false,"bogusName":false,"distance":548.569,"elevation":[],"lat":1.2929885602,"lon":103.8496200893,"relativeDirection":"DEPART","stayOn":false,"streetName":"path"}],"to":{"arrival":1701080253000,"departure":1701080254000,"lat":1.2889896219,"lon":103.8470897641,"name":"path","vertexType":"NORMAL"},"transitLeg":false},{"agencyTimeZoneOffset":28800000,"arrivalDelay":0,"departureDelay":0,"distance":61.6315456609,"duration":10,"endTime":1701080264000,"from":{"arrival":1701080253000,"departure":1701080254000,"lat":1.2889896218,"lon":103.847089764,"name":"CLARKE QUAY STN EXIT E","vertexType":"NORMAL"},"interlineWithPreviousLeg":false,"intermediateStops":[],"legGeometry":{"length":2,"points":"cwzFgsyxRt@|A"},"mode":"WALK","numIntermediateStops":1,"pathway":false,"realTime":false,"rentedBike":false,"route":"","startTime":1701080254000,"steps":[{"absoluteDirection":"SOUTHWEST","area":false,"bogusName":false,"distance":61.6315456609,"elevation":[],"lat":1.2889896218,"lon":103.847089764,"relativeDirection":"SLIGHTLY_RIGHT","stayOn":false,"streetName":"Transfer"}],"to":{"arrival":1701080264000,"departure":1701080264000,"lat":1.2887102315,"lon":103.846610946,"name":"CLARKE QUAY MRT STATION","stopCode":"NE5","stopId":"FERRY:NE5","stopIndex":12,"stopSequence":13,"vertexType":"TRANSIT"},"transitLeg":false},{"agencyId":"SBST","agencyName":"SBS Transit","agencyTimeZoneOffset":28800000,"agencyUrl":"http:\/\/www.sbstransit.com.sg\/","arrivalDelay":0,"departureDelay":0,"distance":634.7852065982,"duration":49,"endTime":1701080313000,"from":{"arrival":1701080264000,"departure":1701080264000,"lat":1.2887102315,"lon":103.846610946,"name":"CLARKE QUAY MRT STATION","stopCode":"NE5","stopId":"FERRY:NE5","stopIndex":12,"stopSequence":13,"vertexType":"TRANSIT"},"interlineWithPreviousLeg":false,"intermediateStops":[],"legGeometry":{"length":25,"points":"guzFwpyxRzD~@JBJBJDD@JDJBHDJDJD^XXNd@Zj@j@j@h@X\\|@`A|@r@TTTTb@^JHpC|B`At@"},"mode":"SUBWAY","numIntermediateStops":1,"pathway":false,"realTime":false,"rentedBike":false,"route":"NE","routeId":"NE","routeLongName":"NORTH EAST LINE","routeShortName":"NE","routeType":1,"serviceDate":"20231127","startTime":1701080264000,"steps":[],"to":{"arrival":1701080313000,"departure":1701080313000,"lat":1.2840949166,"lon":103.843250231,"name":"CHINATOWN MRT STATION","stopCode":"NE4","stopId":"FERRY:NE4","stopIndex":13,"stopSequence":14,"vertexType":"TRANSIT"},"transitLeg":true,"tripId":"NE-2-4008"},{"agencyTimeZoneOffset":28800000,"arrivalDelay":0,"departureDelay":0,"distance":150.7612969943,"duration":10,"endTime":1701080323000,"from":{"arrival":1701080313000,"departure":1701080313000,"lat":1.2840949166,"lon":103.843250231,"name":"CHINATOWN MRT STATION","stopCode":"NE4","stopId":"FERRY:NE4","stopIndex":13,"stopSequence":14,"vertexType":"TRANSIT"},"interlineWithPreviousLeg":false,"intermediateStops":[],"legGeometry":{"length":2,"points":"qxyFi{xxRfFlC"},"mode":"WALK","numIntermediateStops":1,"pathway":false,"realTime":false,"rentedBike":false,"route":"","startTime":1701080313000,"steps":[{"absoluteDirection":"SOUTHWEST","area":false,"bogusName":false,"distance":150.7612969943,"elevation":[],"lat":1.2840949166,"lon":103.843250231,"relativeDirection":"DEPART","stayOn":false,"streetName":"Transfer"}],"to":{"arrival":1701080323000,"departure":1701080324000,"lat":1.2829381913,"lon":103.842542768,"name":"NEW BRIDGE CTR","vertexType":"NORMAL"},"transitLeg":false},{"agencyTimeZoneOffset":28800000,"arrivalDelay":0,"departureDelay":0,"distance":307.577,"duration":261,"endTime":1701080585000,"from":{"arrival":1701080323000,"departure":1701080324000,"lat":1.282938191,"lon":103.8425427681,"name":"path","vertexType":"NORMAL"},"interlineWithPreviousLeg":false,"intermediateStops":[],"legGeometry":{"length":31,"points":"iqyF{vxxRACGGQIEABENWP_@BGZo@HQFOHMXk@BGBEBA@?D@\\NVJJ@BABAHIN]DKJO?ABE\\w@"},"mode":"WALK","numIntermediateStops":1,"pathway":false,"realTime":false,"rentedBike":false,"route":"","startTime":1701080324000,"steps":[{"absoluteDirection":"EAST","area":false,"bogusName":true,"distance":307.577,"elevation":[],"lat":1.282938191,"lon":103.8425427681,"relativeDirection":"HARD_LEFT","stayOn":false,"streetName":"path"}],"to":{"arrival":1701080585000,"lat":1.2814943848,"lon":103.844241653,"name":"Destination","orig":"","vertexType":"NORMAL"},"transitLeg":false}],"startTime":1701079800000,"tooSloped":false,"transfers":0,"transitTime":49,"waitingTime":2,"walkDistance":856.476827057,"walkLimitExceeded":false,"walkTime":734},{"duration":1071,"elevationGained":0,"elevationLost":0,"endTime":1701080961000,"fare":"0.99","legs":[{"agencyTimeZoneOffset":28800000,"arrivalDelay":0,"departureDelay":0,"distance":795.424,"duration":642,"endTime":1701080532000,"from":{"departure":1701079890000,"lat":1.2930995692,"lon":103.8494005152,"name":"Origin","orig":"","vertexType":"NORMAL"},"interlineWithPreviousLeg":false,"intermediateStops":[],"legGeometry":{"length":47,"points":"cp{FcczxRJFF@l@RB?@?b@R@@B?@?F?J@VFr@XXLPJ@@pAj@@@tAn@j@Vb@VFLDH@L@H?NANAHKXUd@M\\AFOXQXU`@[b@INa@p@}AnC}@zA]h@EBINCDC@f@Z"},"mode":"WALK","numIntermediateStops":1,"pathway":false,"realTime":false,"rentedBike":false,"route":"","startTime":1701079890000,"steps":[{"absoluteDirection":"SOUTHWEST","area":false,"bogusName":false,"distance":795.424,"elevation":[],"lat":1.2929885602,"lon":103.8496200893,"relativeDirection":"DEPART","stayOn":false,"streetName":"path"}],"to":{"arrival":1701080532000,"departure":1701080533000,"lat":1.2921190219,"lon":103.8447606296,"name":"path","vertexType":"NORMAL"},"transitLeg":false},{"agencyTimeZoneOffset":28800000,"arrivalDelay":0,"departureDelay":0,"distance":73.8491064724,"duration":10,"endTime":1701080543000,"from":{"arrival":1701080532000,"departure":1701080533000,"lat":1.2921151738,"lon":103.844766066,"name":"BEF FORT CANNING STN","vertexType":"NORMAL"},"interlineWithPreviousLeg":false,"intermediateStops":[],"legGeometry":{"length":2,"points":"uj{FwdyxR{Bn@"},"mode":"WALK","numIntermediateStops":1,"pathway":false,"realTime":false,"rentedBike":false,"route":"","startTime":1701080533000,"steps":[{"absoluteDirection":"NORTH","area":false,"bogusName":false,"distance":73.8491064724,"elevation":[],"lat":1.2921151738,"lon":103.844766066,"relativeDirection":"HARD_RIGHT","stayOn":false,"streetName":"Transfer"}],"to":{"arrival":1701080543000,"departure":1701080543000,"lat":1.2927336657,"lon":103.844524034,"name":"FORT CANNING MRT STATION","stopCode":"DT20","stopId":"FERRY:DT20","stopIndex":15,"stopSequence":16,"vertexType":"TRANSIT"},"transitLeg":false},{"agencyId":"SBST","agencyName":"SBS Transit","agencyTimeZoneOffset":28800000,"agencyUrl":"http:\/\/www.sbstransit.com.sg\/","arrivalDelay":0,"departureDelay":0,"distance":934.8758683655,"duration":47,"endTime":1701080590000,"from":{"arrival":1701080543000,"departure":1701080543000,"lat":1.2927336657,"lon":103.844524034,"name":"FORT CANNING MRT STATION","stopCode":"DT20","stopId":"FERRY:DT20","stopIndex":15,"stopSequence":16,"vertexType":"TRANSIT"},"interlineWithPreviousLeg":false,"intermediateStops":[],"legGeometry":{"length":21,"points":"on{FicyxRv@`@pErBfBx@~@ZjARb@DlCP|AVrCv@rAXdALn@BfAAl@Mp@Sr@_@jAaAfB_C|A{Cr@wA"},"mode":"SUBWAY","numIntermediateStops":1,"pathway":false,"realTime":false,"rentedBike":false,"route":"DT","routeId":"DT","routeLongName":"DOWNTOWN LINE","routeShortName":"DT","routeType":1,"serviceDate":"20231127","startTime":1701080543000,"steps":[],"to":{"arrival":1701080590000,"departure":1701080590000,"lat":1.2843424126,"lon":103.845047034,"name":"CHINATOWN MRT STATION","stopCode":"DT19","stopId":"FERRY:DT19","stopIndex":16,"stopSequence":17,"vertexType":"TRANSIT"},"transitLeg":true,"tripId":"DT-1-6006"},{"agencyTimeZoneOffset":28800000,"arrivalDelay":0,"departureDelay":0,"distance":201.6324297769,"duration":20,"endTime":1701080610000,"from":{"arrival":1701080590000,"departure":1701080590000,"lat":1.2843424126,"lon":103.845047034,"name":"CHINATOWN MRT STATION","stopCode":"DT19","stopId":"FERRY:DT19","stopIndex":16,"stopSequence":17,"vertexType":"TRANSIT"},"interlineWithPreviousLeg":false,"intermediateStops":[],"legGeometry":{"length":2,"points":"czyFofyxRp@dJ"},"mode":"WALK","numIntermediateStops":1,"pathway":false,"realTime":false,"rentedBike":false,"route":"","startTime":1701080590000,"steps":[{"absoluteDirection":"WEST","area":false,"bogusName":false,"distance":201.6324297769,"elevation":[],"lat":1.2843424126,"lon":103.845047034,"relativeDirection":"DEPART","stayOn":false,"streetName":"Transfer"}],"to":{"arrival":1701080610000,"departure":1701080611000,"lat":1.2840949166,"lon":103.843250231,"name":"CHINATOWN MRT STATION","vertexType":"NORMAL"},"transitLeg":false},{"agencyTimeZoneOffset":28800000,"arrivalDelay":0,"departureDelay":0,"distance":420.564,"duration":350,"endTime":1701080961000,"from":{"arrival":1701080610000,"departure":1701080611000,"lat":1.2840949169,"lon":103.8432502312,"name":"path","vertexType":"NORMAL"},"interlineWithPreviousLeg":false,"intermediateStops":[],"legGeometry":{"length":32,"points":"qxyFi{xxRXa@@?DCFB@@LUBEVg@f@eAFKP]?CDGrAn@tAn@HFCJ@?D@\\NVJJ@BABAHIN]DKJO?ABE\\w@"},"mode":"WALK","numIntermediateStops":1,"pathway":false,"realTime":false,"rentedBike":false,"route":"","startTime":1701080611000,"steps":[{"absoluteDirection":"SOUTHEAST","area":false,"bogusName":true,"distance":420.564,"elevation":[],"lat":1.2840949169,"lon":103.8432502312,"relativeDirection":"HARD_LEFT","stayOn":false,"streetName":"path"}],"to":{"arrival":1701080961000,"lat":1.2814943848,"lon":103.844241653,"name":"Destination","orig":"","vertexType":"NORMAL"},"transitLeg":false}],"startTime":1701079890000,"tooSloped":false,"transfers":0,"transitTime":47,"waitingTime":2,"walkDistance":1216.3786014912,"walkLimitExceeded":false,"walkTime":1022}],"to":{"lat":1.2814943848,"lon":103.844241653,"name":"Destination","orig":"","vertexType":"NORMAL"}},"requestParameters":{"arriveBy":"false","date":"11-27-2023","fromPlace":"1.2930995691703,103.849400515214","maxTransfers":"3","maxWalkDistance":"600","mode":"TRANSIT,WALK","numItineraries":"3","otherThanPreferredRoutesPenalty":"0","preferredRoutes":"1__CC,1__DT,1__EW,1__NE,1__NS,1__PE,1__PW,1__SE,1__SS,1__SW,1__CG,1__BP","showIntermediateStops":"true","time":"6:09pm","toPlace":"1.28149438480275,103.844241653043","transferPenalty":"7200","waitAtBeginningFactor":"0.5","walkReluctance":"2"}},{"debugOutput":{"pathCalculationTime":31,"pathTimes":[10,10,11],"precalculationTime":37,"renderingTime":1,"timedOut":false,"totalTime":69},"elevationMetadata":{"ellipsoidToGeoidDifference":7.3773084369,"geoidElevation":false},"plan":{"date":1701079740000,"from":{"lat":1.2814943848,"lon":103.844241653,"name":"Origin","orig":"","vertexType":"NORMAL"},"itineraries":[{"duration":808,"elevationGained":0,"elevationLost":0,"endTime":1701080664000,"fare":"1.09","legs":[{"agencyTimeZoneOffset":28800000,"arrivalDelay":0,"departureDelay":0,"distance":307.577,"duration":261,"endTime":1701080117000,"from":{"departure":1701079856000,"lat":1.2814943848,"lon":103.844241653,"name":"Origin","orig":"","vertexType":"NORMAL"},"interlineWithPreviousLeg":false,"intermediateStops":[],"legGeometry":{"length":31,"points":"ciyF}ayxR]v@CD?@KNEJO\\IHC@C@KAWK]OEAA?C@CDCFYj@ILGNIP[n@CFQ^OVCDD@PHFF@B"},"mode":"WALK","numIntermediateStops":1,"pathway":false,"realTime":false,"rentedBike":false,"route":"","startTime":1701079856000,"steps":[{"absoluteDirection":"NORTHWEST","area":false,"bogusName":false,"distance":307.577,"elevation":[],"lat":1.2816213411,"lon":103.8443127337,"relativeDirection":"DEPART","stayOn":false,"streetName":"path"}],"to":{"arrival":1701080117000,"departure":1701080118000,"lat":1.282938191,"lon":103.8425427681,"name":"path","vertexType":"NORMAL"},"transitLeg":false},{"agencyTimeZoneOffset":28800000,"arrivalDelay":0,"departureDelay":0,"distance":150.7612969943,"duration":10,"endTime":1701080128000,"from":{"arrival":1701080117000,"departure":1701080118000,"lat":1.2829381913,"lon":103.842542768,"name":"NEW BRIDGE CTR","vertexType":"NORMAL"},"interlineWithPreviousLeg":false,"intermediateStops":[],"legGeometry":{"length":2,"points":"iqyF{vxxRgFmC"},"mode":"WALK","numIntermediateStops":1,"pathway":false,"realTime":false,"rentedBike":false,"route":"","startTime":1701080118000,"steps":[{"absoluteDirection":"NORTHEAST","area":false,"bogusName":false,"distance":150.7612969943,"elevation":[],"lat":1.2829381913,"lon":103.842542768,"relativeDirection":"RIGHT","stayOn":false,"streetName":"Transfer"}],"to":{"arrival":1701080128000,"departure":1701080128000,"lat":1.2840949166,"lon":103.843250231,"name":"CHINATOWN MRT STATION","stopCode":"NE4","stopId":"FERRY:NE4","stopIndex":2,"stopSequence":4,"vertexType":"TRANSIT"},"transitLeg":false},{"agencyId":"SBST","agencyName":"SBS Transit","agencyTimeZoneOffset":28800000,"agencyUrl":"http:\/\/www.sbstransit.com.sg\/","arrivalDelay":0,"departureDelay":0,"distance":1855.7101368603,"duration":188,"endTime":1701080316000,"from":{"arrival":1701080128000,"departure":1701080128000,"lat":1.2840949166,"lon":103.843250231,"name":"CHINATOWN MRT STATION","stopCode":"NE4","stopId":"FERRY:NE4","stopIndex":2,"stopSequence":4,"vertexType":"TRANSIT"},"interlineWithPreviousLeg":false,"intermediateStops":[{"arrival":1701080177000,"departure":1701080207000,"lat":1.2887102315,"lon":103.846610946,"name":"CLARKE QUAY MRT STATION","stopCode":"NE5","stopId":"FERRY:NE5","stopIndex":3,"stopSequence":5,"vertexType":"TRANSIT"}],"legGeometry":{"length":170,"points":"}xyFyzxxRs@k@aEkDeA{@]_@a@a@a@g@Ya@W[YUIMIGIGIGIGIGIEIGIEKGIEKEIEKEIEKEKEICICKEKCKCKCKEKCKCKCKCsBe@OCwBg@KCKAKCKCKCKCKAGCA?KAKCMAKCKAKAKAMAK?KAK?MAK?K?M?K?K?M?K?K@M?K@K@K@M@K@K@KBK@KBK@MBuBn@IBKDID??KF??IDKDIDKFIDID}K~FIDKFIDKDIFKDIDKDIDKDGBKDKDKBKDKBKBKBKBKBKBKBK@KBM@KBK@M@K@K@M?K@K?M@K?K?M?K?M?K?K?MAK?KAMAKAKAMAKAKCKAMCKAKCKCKCKCKCKEKCKEKCIEKEKCIEECEAKEECCAKEIEqAm@"},"mode":"SUBWAY","numIntermediateStops":2,"pathway":false,"realTime":false,"rentedBike":false,"route":"NE","routeId":"NE","routeLongName":"NORTH EAST LINE","routeShortName":"NE","routeType":1,"serviceDate":"20231127","startTime":1701080128000,"steps":[],"to":{"arrival":1701080316000,"departure":1701080316000,"lat":1.2996206158,"lon":103.845375944,"name":"DHOBY GHAUT MRT STATION","stopCode":"NE6","stopId":"FERRY:NE6","stopIndex":4,"stopSequence":6,"vertexType":"TRANSIT"},"transitLeg":true,"tripId":"NE-1-4014"},{"agencyTimeZoneOffset":28800000,"arrivalDelay":0,"departureDelay":0,"distance":171.3574091118,"duration":20,"endTime":1701080336000,"from":{"arrival":1701080316000,"departure":1701080316000,"lat":1.2996206158,"lon":103.845375944,"name":"DHOBY GHAUT MRT STATION","stopCode":"NE6","stopId":"FERRY:NE6","stopIndex":4,"stopSequence":6,"vertexType":"TRANSIT"},"interlineWithPreviousLeg":false,"intermediateStops":[],"legGeometry":{"length":2,"points":"sy|FqhyxRdDcG"},"mode":"WALK","numIntermediateStops":1,"pathway":false,"realTime":false,"rentedBike":false,"route":"","startTime":1701080316000,"steps":[{"absoluteDirection":"SOUTHEAST","area":false,"bogusName":false,"distance":171.3574091118,"elevation":[],"lat":1.2996206158,"lon":103.845375944,"relativeDirection":"DEPART","stayOn":false,"streetName":"Transfer"}],"to":{"arrival":1701080336000,"departure":1701080355000,"lat":1.2987970718,"lon":103.846678821,"name":"DHOBY GHAUT MRT STATION","stopCode":"CC1","stopId":"FERRY:CC1","stopIndex":0,"stopSequence":1,"vertexType":"TRANSIT"},"transitLeg":false},{"agencyId":"SMRT","agencyName":"SMRT Corporation","agencyTimeZoneOffset":28800000,"agencyUrl":"http:\/\/www.smrt.com.sg\/","arrivalDelay":0,"departureDelay":0,"distance":1793.3048742291,"duration":222,"endTime":1701080577000,"from":{"arrival":1701080336000,"departure":1701080355000,"lat":1.2987970718,"lon":103.846678821,"name":"DHOBY GHAUT MRT STATION","stopCode":"CC1","stopId":"FERRY:CC1","stopIndex":0,"stopSequence":1,"vertexType":"TRANSIT"},"interlineWithPreviousLeg":false,"intermediateStops":[{"arrival":1701080398000,"departure":1701080428000,"lat":1.296812442,"lon":103.850894978,"name":"BRAS BASAH MRT STATION","stopCode":"CC2","stopId":"FERRY:CC2","stopIndex":1,"stopSequence":2,"vertexType":"TRANSIT"},{"arrival":1701080482000,"departure":1701080512000,"lat":1.2931861923,"lon":103.855534707,"name":"ESPLANADE MRT STATION","stopCode":"CC3","stopId":"FERRY:CC3","stopIndex":2,"stopSequence":3,"vertexType":"TRANSIT"}],"legGeometry":{"length":27,"points":"wt|FypyxRxBgJl@sC`@mAp@mAzBsCX_@z@gAtDqFvBcDjDcFtAwBfAsB@ClD_HzCcFZgAPaAXyDG_ASw@_@m@u@s@u@[k@Mi@CqBA"},"mode":"SUBWAY","numIntermediateStops":3,"pathway":false,"realTime":false,"rentedBike":false,"route":"CC","routeId":"CC","routeLongName":"CIRCLE LINE","routeShortName":"CC","routeType":1,"serviceDate":"20231127","startTime":1701080355000,"steps":[],"to":{"arrival":1701080577000,"departure":1701080577000,"lat":1.2931977531,"lon":103.861116976,"name":"PROMENADE MRT STATION","stopCode":"CC4","stopId":"FERRY:CC4","stopIndex":3,"stopSequence":4,"vertexType":"TRANSIT"},"transitLeg":true,"tripId":"CC-1-4016"},{"agencyTimeZoneOffset":28800000,"arrivalDelay":0,"departureDelay":0,"distance":48.0264371983,"duration":10,"endTime":1701080587000,"from":{"arrival":1701080577000,"departure":1701080577000,"lat":1.2931977531,"lon":103.861116976,"name":"PROMENADE MRT STATION","stopCode":"CC4","stopId":"FERRY:CC4","stopIndex":3,"stopSequence":4,"vertexType":"TRANSIT"},"interlineWithPreviousLeg":false,"intermediateStops":[],"legGeometry":{"length":2,"points":"mq{F}j|xR[pA"},"mode":"WALK","numIntermediateStops":1,"pathway":false,"realTime":false,"rentedBike":false,"route":"","startTime":1701080577000,"steps":[{"absoluteDirection":"WEST","area":false,"bogusName":false,"distance":48.0264371983,"elevation":[],"lat":1.2931977531,"lon":103.861116976,"relativeDirection":"DEPART","stayOn":false,"streetName":"Transfer"}],"to":{"arrival":1701080587000,"departure":1701080588000,"lat":1.2933383678,"lon":103.860708491,"name":"PROMENADE STN EXIT B","vertexType":"NORMAL"},"transitLeg":false},{"agencyTimeZoneOffset":28800000,"arrivalDelay":0,"departureDelay":0,"distance":94.881,"duration":76,"endTime":1701080664000,"from":{"arrival":1701080587000,"departure":1701080588000,"lat":1.293338368,"lon":103.86070849,"name":"path","vertexType":"NORMAL"},"interlineWithPreviousLeg":false,"intermediateStops":[],"legGeometry":{"length":5,"points":"ir{Fkh|xRBLMXs@xABR"},"mode":"WALK","numIntermediateStops":1,"pathway":false,"realTime":false,"rentedBike":false,"route":"","startTime":1701080588000,"steps":[{"absoluteDirection":"WEST","area":false,"bogusName":true,"distance":94.881,"elevation":[],"lat":1.293338368,"lon":103.86070849,"relativeDirection":"SLIGHTLY_LEFT","stayOn":false,"streetName":"path"}],"to":{"arrival":1701080664000,"lat":1.2929650415,"lon":103.8593439689,"name":"Destination","orig":"","vertexType":"NORMAL"},"transitLeg":false}],"startTime":1701079856000,"tooSloped":false,"transfers":1,"transitTime":410,"waitingTime":21,"walkDistance":402.6121353334,"walkLimitExceeded":false,"walkTime":377},{"duration":832,"elevationGained":0,"elevationLost":0,"endTime":1701080591000,"fare":"1.09","legs":[{"agencyTimeZoneOffset":28800000,"arrivalDelay":0,"departureDelay":0,"distance":427.658,"duration":370,"endTime":1701080129000,"from":{"departure":1701079759000,"lat":1.2814943848,"lon":103.844241653,"name":"Origin","orig":"","vertexType":"NORMAL"},"interlineWithPreviousLeg":false,"intermediateStops":[],"legGeometry":{"length":52,"points":"ciyF}ayxRBC`@}@BEICGE@Ag@WUIAACCEAECCAu@_@GEC?A@@CMGICIEi@[QIGCECAAEAYOGEYMIEA?GEIEEA?A??A?CAEEMGUKECCAE@ABUd@[p@Q\\GLD@"},"mode":"WALK","numIntermediateStops":1,"pathway":false,"realTime":false,"rentedBike":false,"route":"","startTime":1701079759000,"steps":[{"absoluteDirection":"SOUTHEAST","area":false,"bogusName":false,"distance":427.658,"elevation":[],"lat":1.2816213411,"lon":103.8443127337,"relativeDirection":"DEPART","stayOn":false,"streetName":"path"}],"to":{"arrival":1701080129000,"departure":1701080130000,"lat":1.2839851314,"lon":103.8452738732,"name":"path","vertexType":"NORMAL"},"transitLeg":false},{"agencyTimeZoneOffset":28800000,"arrivalDelay":0,"departureDelay":0,"distance":47.0553527917,"duration":10,"endTime":1701080140000,"from":{"arrival":1701080129000,"departure":1701080130000,"lat":1.2839851315,"lon":103.845273873,"name":"OPP HONG LIM CPLX","vertexType":"NORMAL"},"interlineWithPreviousLeg":false,"intermediateStops":[],"legGeometry":{"length":2,"points":"{wyF}gyxRgAl@"},"mode":"WALK","numIntermediateStops":1,"pathway":false,"realTime":false,"rentedBike":false,"route":"","startTime":1701080130000,"steps":[{"absoluteDirection":"NORTHWEST","area":false,"bogusName":false,"distance":47.0553527917,"elevation":[],"lat":1.2839851315,"lon":103.845273873,"relativeDirection":"HARD_LEFT","stayOn":false,"streetName":"Transfer"}],"to":{"arrival":1701080140000,"departure":1701080140000,"lat":1.2843424126,"lon":103.845047034,"name":"CHINATOWN MRT STATION","stopCode":"DT19","stopId":"FERRY:DT19","stopIndex":16,"stopSequence":17,"vertexType":"TRANSIT"},"transitLeg":false},{"agencyId":"SBST","agencyName":"SBS Transit","agencyTimeZoneOffset":28800000,"agencyUrl":"http:\/\/www.sbstransit.com.sg\/","arrivalDelay":0,"departureDelay":0,"distance":3025.7121143139,"duration":364,"endTime":1701080504000,"from":{"arrival":1701080140000,"departure":1701080140000,"lat":1.2843424126,"lon":103.845047034,"name":"CHINATOWN MRT STATION","stopCode":"DT19","stopId":"FERRY:DT19","stopIndex":16,"stopSequence":17,"vertexType":"TRANSIT"},"interlineWithPreviousLeg":false,"intermediateStops":[{"arrival":1701080179000,"departure":1701080209000,"lat":1.282134136,"lon":103.848482196,"name":"TELOK AYER MRT STATION","stopCode":"DT18","stopId":"FERRY:DT18","stopIndex":17,"stopSequence":18,"vertexType":"TRANSIT"},{"arrival":1701080290000,"departure":1701080320000,"lat":1.2793271617,"lon":103.852995368,"name":"DOWNTOWN MRT STATION","stopCode":"DT17","stopId":"FERRY:DT17","stopIndex":18,"stopSequence":19,"vertexType":"TRANSIT"},{"arrival":1701080398000,"departure":1701080428000,"lat":1.2819102206,"lon":103.85909025,"name":"BAYFRONT MRT STATION","stopCode":"DT16","stopId":"FERRY:DT16","stopIndex":19,"stopSequence":20,"vertexType":"TRANSIT"}],"legGeometry":{"length":35,"points":"azyFofyxR`KuSXi@xGcNr@qAt@u@nAi@bB_Af@y@Xc@P[vAiCd@kAX_BByAKsB_@wB_AoBoB}BaBoA{G_EoC_BECwHmEgFaCkCw@cCc@oBOgE?kK`AiEHmDAaGG_@?A?"},"mode":"SUBWAY","numIntermediateStops":4,"pathway":false,"realTime":false,"rentedBike":false,"route":"DT","routeId":"DT","routeLongName":"DOWNTOWN LINE","routeShortName":"DT","routeType":1,"serviceDate":"20231127","startTime":1701080140000,"steps":[],"to":{"arrival":1701080504000,"departure":1701080504000,"lat":1.292961434,"lon":103.860883432,"name":"PROMENADE MRT STATION","stopCode":"DT15","stopId":"FERRY:DT15","stopIndex":20,"stopSequence":21,"vertexType":"TRANSIT"},"transitLeg":true,"tripId":"DT-1-6004"},{"agencyTimeZoneOffset":28800000,"arrivalDelay":0,"departureDelay":0,"distance":46.2052573191,"duration":10,"endTime":1701080514000,"from":{"arrival":1701080504000,"departure":1701080504000,"lat":1.292961434,"lon":103.860883432,"name":"PROMENADE MRT STATION","stopCode":"DT15","stopId":"FERRY:DT15","stopIndex":20,"stopSequence":21,"vertexType":"TRANSIT"},"interlineWithPreviousLeg":false,"intermediateStops":[],"legGeometry":{"length":2,"points":"_p{Foi|xRiAb@"},"mode":"WALK","numIntermediateStops":1,"pathway":false,"realTime":false,"rentedBike":false,"route":"","startTime":1701080504000,"steps":[{"absoluteDirection":"NORTHWEST","area":false,"bogusName":false,"distance":46.2052573191,"elevation":[],"lat":1.292961434,"lon":103.860883432,"relativeDirection":"DEPART","stayOn":false,"streetName":"Transfer"}],"to":{"arrival":1701080514000,"departure":1701080515000,"lat":1.2933383678,"lon":103.860708491,"name":"PROMENADE STN EXIT B","vertexType":"NORMAL"},"transitLeg":false},{"agencyTimeZoneOffset":28800000,"arrivalDelay":0,"departureDelay":0,"distance":94.881,"duration":76,"endTime":1701080591000,"from":{"arrival":1701080514000,"departure":1701080515000,"lat":1.293338368,"lon":103.86070849,"name":"path","vertexType":"NORMAL"},"interlineWithPreviousLeg":false,"intermediateStops":[],"legGeometry":{"length":5,"points":"ir{Fkh|xRBLMXs@xABR"},"mode":"WALK","numIntermediateStops":1,"pathway":false,"realTime":false,"rentedBike":false,"route":"","startTime":1701080515000,"steps":[{"absoluteDirection":"WEST","area":false,"bogusName":true,"distance":94.881,"elevation":[],"lat":1.293338368,"lon":103.86070849,"relativeDirection":"LEFT","stayOn":false,"streetName":"path"}],"to":{"arrival":1701080591000,"lat":1.2929650415,"lon":103.8593439689,"name":"Destination","orig":"","vertexType":"NORMAL"},"transitLeg":false}],"startTime":1701079759000,"tooSloped":false,"transfers":0,"transitTime":364,"waitingTime":2,"walkDistance":522.7754661578,"walkLimitExceeded":false,"walkTime":466},{"duration":1194,"elevationGained":0,"elevationLost":0,"endTime":1701081303000,"fare":"0.99","legs":[{"agencyTimeZoneOffset":28800000,"arrivalDelay":0,"departureDelay":0,"distance":624.98,"duration":538,"endTime":1701080647000,"from":{"departure":1701080109000,"lat":1.2814943848,"lon":103.844241653,"name":"Origin","orig":"","vertexType":"NORMAL"},"interlineWithPreviousLeg":false,"intermediateStops":[],"legGeometry":{"length":55,"points":"ciyF}ayxRBC`@}@BEICGE@Ag@WUIAA@CLU@CBADGHMFQ@C?AFW?ERIHQFCvBkAl@]pAk@Py@D@H@DAFQT_ADA@@?CBE?CBI?CAADKd@_ABEBGJOR_@BE@AD?FBZRRHLFBB"},"mode":"WALK","numIntermediateStops":1,"pathway":false,"realTime":false,"rentedBike":false,"route":"","startTime":1701080109000,"steps":[{"absoluteDirection":"SOUTHEAST","area":false,"bogusName":false,"distance":624.98,"elevation":[],"lat":1.2816213411,"lon":103.8443127337,"relativeDirection":"DEPART","stayOn":false,"streetName":"path"}],"to":{"arrival":1701080647000,"departure":1701080648000,"lat":1.2788165499,"lon":103.847738552,"name":"OPP GB BLDG","stopCode":"03151","stopId":"FERRY:03151","stopIndex":2,"stopSequence":3,"vertexType":"TRANSIT"},"transitLeg":false},{"agencyId":"SBST","agencyName":"SBS Transit","agencyTimeZoneOffset":28800000,"agencyUrl":"http:\/\/www.sbstransit.com.sg\/","arrivalDelay":0,"departureDelay":0,"distance":923.6970482335,"duration":219,"endTime":1701080867000,"from":{"arrival":1701080647000,"departure":1701080648000,"lat":1.2788165499,"lon":103.847738552,"name":"OPP GB BLDG","stopCode":"03151","stopId":"FERRY:03151","stopIndex":2,"stopSequence":3,"vertexType":"TRANSIT"},"interlineWithPreviousLeg":false,"intermediateStops":[{"arrival":1701080808000,"departure":1701080838000,"lat":1.2816260133,"lon":103.853065137,"name":"THE SAIL","stopCode":"03381","stopId":"FERRY:03381","stopIndex":3,"stopSequence":5,"vertexType":"TRANSIT"}],"legGeometry":{"length":24,"points":"mwxFqwyxRyAw@UMMO{GmDcBy@}@]iB{@s@e@GG?ACAUa@Gg@BeBFaAJYhAoBpAkCj@cA??v@qA~AwC~AuC"},"mode":"BUS","numIntermediateStops":2,"pathway":false,"realTime":false,"rentedBike":false,"route":"400","routeId":"400","routeLongName":"SBST BUS 400","routeShortName":"400","routeType":3,"serviceDate":"20231127","startTime":1701080648000,"steps":[],"to":{"arrival":1701080867000,"departure":1701080878000,"lat":1.2803766034,"lon":103.854980068,"name":"MARINA BAY FINANCIAL CTR","stopCode":"03391","stopId":"FERRY:03391","stopIndex":4,"stopSequence":6,"vertexType":"TRANSIT"},"transitLeg":true,"tripId":"400-1-3005"},{"agencyId":"TTS","agencyName":"Tower Transit Services","agencyTimeZoneOffset":28800000,"agencyUrl":"http:\/\/towertransit.sg\/","arrivalDelay":0,"departureDelay":0,"distance":1789.2518664047,"duration":348,"endTime":1701081226000,"from":{"arrival":1701080867000,"departure":1701080878000,"lat":1.2803766034,"lon":103.854980068,"name":"MARINA BAY FINANCIAL CTR","stopCode":"03391","stopId":"FERRY:03391","stopIndex":32,"stopSequence":33,"vertexType":"TRANSIT"},"interlineWithPreviousLeg":false,"intermediateStops":[{"arrival":1701080978000,"departure":1701081008000,"lat":1.2819477947,"lon":103.858970649,"name":"AFT BAYFRONT STN EXIT E","stopCode":"03511","stopId":"FERRY:03511","stopIndex":33,"stopSequence":34,"vertexType":"TRANSIT"},{"arrival":1701081066000,"departure":1701081096000,"lat":1.2850046767,"lon":103.860611054,"name":"MARINA BAY SANDS THEATRE","stopCode":"03501","stopId":"FERRY:03501","stopIndex":34,"stopSequence":35,"vertexType":"TRANSIT"}],"legGeometry":{"length":32,"points":"y`yFgd{xR??tAiCrCcFp@mAkAo@{@e@wGuDa@SwC_BmBeAgDmBmBcA}Ao@u@Sq@Ka@Em@ImFIkLKyB?kA?Y?oEBG?eBAM?qA@_@?}CDsBBQB"},"mode":"BUS","numIntermediateStops":3,"pathway":false,"realTime":false,"rentedBike":false,"route":"97","routeId":"97","routeLongName":"TTS BUS 97","routeShortName":"97","routeType":3,"serviceDate":"20231127","startTime":1701080878000,"steps":[],"to":{"arrival":1701081226000,"departure":1701081227000,"lat":1.2933383678,"lon":103.860708491,"name":"PROMENADE STN EXIT B","stopCode":"02169","stopId":"FERRY:02169","stopIndex":35,"stopSequence":36,"vertexType":"TRANSIT"},"transitLeg":true,"tripId":"97-1-3004"},{"agencyTimeZoneOffset":28800000,"arrivalDelay":0,"departureDelay":0,"distance":94.881,"duration":76,"endTime":1701081303000,"from":{"arrival":1701081226000,"departure":1701081227000,"lat":1.2933383678,"lon":103.860708491,"name":"PROMENADE STN EXIT B","stopCode":"02169","stopId":"FERRY:02169","stopIndex":35,"stopSequence":36,"vertexType":"TRANSIT"},"interlineWithPreviousLeg":false,"intermediateStops":[],"legGeometry":{"length":5,"points":"ir{Fkh|xRBLMXs@xABR"},"mode":"WALK","numIntermediateStops":1,"pathway":false,"realTime":false,"rentedBike":false,"route":"","startTime":1701081227000,"steps":[{"absoluteDirection":"WEST","area":false,"bogusName":true,"distance":94.881,"elevation":[],"lat":1.293338368,"lon":103.86070849,"relativeDirection":"DEPART","stayOn":false,"streetName":"path"}],"to":{"arrival":1701081303000,"lat":1.2929650415,"lon":103.8593439689,"name":"Destination","orig":"","vertexType":"NORMAL"},"transitLeg":false}],"startTime":1701080109000,"tooSloped":false,"transfers":1,"transitTime":567,"waitingTime":13,"walkDistance":720.1914511172,"walkLimitExceeded":false,"walkTime":614}],"to":{"lat":1.2929650415,"lon":103.8593439689,"name":"Destination","orig":"","vertexType":"NORMAL"}},"requestParameters":{"arriveBy":"false","date":"11-27-2023","fromPlace":"1.28149438480275,103.844241653043","maxTransfers":"3","maxWalkDistance":"843.3717667058714","mode":"TRANSIT,WALK","numItineraries":"3","otherThanPreferredRoutesPenalty":"0","preferredRoutes":"1__CC,1__DT,1__EW,1__NE,1__NS,1__PE,1__PW,1__SE,1__SS,1__SW,1__CG,1__BP","showIntermediateStops":"true","time":"6:09pm","toPlace":"1.29296504146626,103.859343968909","transferPenalty":"2500","waitAtBeginningFactor":"0.5","walkReluctance":"8"}},{"debugOutput":{"pathCalculationTime":25,"pathTimes":[8,10,7],"precalculationTime":45,"renderingTime":1,"timedOut":false,"totalTime":71},"elevationMetadata":{"ellipsoidToGeoidDifference":7.3773084369,"geoidElevation":false},"plan":{"date":1701079740000,"from":{"lat":1.2929650415,"lon":103.8593439689,"name":"Origin","orig":"","vertexType":"NORMAL"},"itineraries":[{"duration":1337,"elevationGained":0,"elevationLost":0,"endTime":1701081302000,"fare":"1.60","legs":[{"agencyTimeZoneOffset":28800000,"arrivalDelay":0,"departureDelay":0,"distance":94.881,"duration":78,"endTime":1701080043000,"from":{"departure":1701079965000,"lat":1.2929650415,"lon":103.8593439689,"name":"Origin","orig":"","vertexType":"NORMAL"},"interlineWithPreviousLeg":false,"intermediateStops":[],"legGeometry":{"length":5,"points":"ct{Fuc|xRCSr@yALYCM"},"mode":"WALK","numIntermediateStops":1,"pathway":false,"realTime":false,"rentedBike":false,"route":"","startTime":1701079965000,"steps":[{"absoluteDirection":"EAST","area":false,"bogusName":false,"distance":94.881,"elevation":[],"lat":1.293625,"lon":103.859952,"relativeDirection":"DEPART","stayOn":false,"streetName":"path"}],"to":{"arrival":1701080043000,"departure":1701080044000,"lat":1.293338368,"lon":103.86070849,"name":"path","vertexType":"NORMAL"},"transitLeg":false},{"agencyTimeZoneOffset":28800000,"arrivalDelay":0,"departureDelay":0,"distance":46.2052573191,"duration":10,"endTime":1701080054000,"from":{"arrival":1701080043000,"departure":1701080044000,"lat":1.2933383678,"lon":103.860708491,"name":"PROMENADE STN EXIT B","vertexType":"NORMAL"},"interlineWithPreviousLeg":false,"intermediateStops":[],"legGeometry":{"length":2,"points":"ir{Fkh|xRhAc@"},"mode":"WALK","numIntermediateStops":1,"pathway":false,"realTime":false,"rentedBike":false,"route":"","startTime":1701080044000,"steps":[{"absoluteDirection":"SOUTHEAST","area":false,"bogusName":false,"distance":46.2052573191,"elevation":[],"lat":1.2933383678,"lon":103.860708491,"relativeDirection":"RIGHT","stayOn":false,"streetName":"Transfer"}],"to":{"arrival":1701080054000,"departure":1701080054000,"lat":1.292961434,"lon":103.860883432,"name":"PROMENADE MRT STATION","stopCode":"DT15","stopId":"FERRY:DT15","stopIndex":20,"stopSequence":21,"vertexType":"TRANSIT"},"transitLeg":false},{"agencyId":"SBST","agencyName":"SBS Transit","agencyTimeZoneOffset":28800000,"agencyUrl":"http:\/\/www.sbstransit.com.sg\/","arrivalDelay":0,"departureDelay":0,"distance":3479.7175028328,"duration":478,"endTime":1701080532000,"from":{"arrival":1701080054000,"departure":1701080054000,"lat":1.292961434,"lon":103.860883432,"name":"PROMENADE MRT STATION","stopCode":"DT15","stopId":"FERRY:DT15","stopIndex":20,"stopSequence":21,"vertexType":"TRANSIT"},"interlineWithPreviousLeg":false,"intermediateStops":[{"arrival":1701080155000,"departure":1701080185000,"lat":1.299376352,"lon":103.856895776,"name":"BUGIS MRT STATION","stopCode":"DT14","stopId":"FERRY:DT14","stopIndex":21,"stopSequence":22,"vertexType":"TRANSIT"},{"arrival":1701080292000,"departure":1701080322000,"lat":1.3039345092,"lon":103.852474327,"name":"ROCHOR MRT STATION","stopCode":"DT13","stopId":"FERRY:DT13","stopIndex":22,"stopSequence":23,"vertexType":"TRANSIT"},{"arrival":1701080444000,"departure":1701080474000,"lat":1.3070847334,"lon":103.848638356,"name":"LITTLE INDIA MRT STATION","stopCode":"DT12","stopId":"FERRY:DT12","stopIndex":23,"stopSequence":24,"vertexType":"TRANSIT"}],"legGeometry":{"length":37,"points":"}o{Fwi|xRiGIsBPgATw@Zg@Vs@f@u@t@u@vAaBnC{@dAkA|@wA`A{ChBiBpAOJuHrHuCnCeCdB{BlAqAtAeAjDENyBdEcBdCwDdEsEjF]`@iDlEkEzDwCnCoB~D{ElOgBhIkBnFkBdCgBpB"},"mode":"SUBWAY","numIntermediateStops":4,"pathway":false,"realTime":false,"rentedBike":false,"route":"DT","routeId":"DT","routeLongName":"DOWNTOWN LINE","routeShortName":"DT","routeType":1,"serviceDate":"20231127","startTime":1701080054000,"steps":[],"to":{"arrival":1701080532000,"departure":1701080532000,"lat":1.3136036044,"lon":103.838053808,"name":"NEWTON MRT STATION","stopCode":"DT11","stopId":"FERRY:DT11","stopIndex":24,"stopSequence":25,"vertexType":"TRANSIT"},"transitLeg":true,"tripId":"DT-1-6002"},{"agencyTimeZoneOffset":28800000,"arrivalDelay":0,"departureDelay":0,"distance":119.4944201667,"duration":5,"endTime":1701080537000,"from":{"arrival":1701080532000,"departure":1701080532000,"lat":1.3136036044,"lon":103.838053808,"name":"NEWTON MRT STATION","stopCode":"DT11","stopId":"FERRY:DT11","stopIndex":24,"stopSequence":25,"vertexType":"TRANSIT"},"interlineWithPreviousLeg":false,"intermediateStops":[],"legGeometry":{"length":2,"points":"_q_GyzwxRvEB"},"mode":"WALK","numIntermediateStops":1,"pathway":false,"realTime":false,"rentedBike":false,"route":"","startTime":1701080532000,"steps":[{"absoluteDirection":"SOUTH","area":false,"bogusName":false,"distance":119.4944201667,"elevation":[],"lat":1.3136036044,"lon":103.838053808,"relativeDirection":"DEPART","stayOn":false,"streetName":"Transfer"}],"to":{"arrival":1701080537000,"departure":1701080563000,"lat":1.3125291106,"lon":103.838036234,"name":"NEWTON MRT STATION","stopCode":"NS21","stopId":"FERRY:NS21","stopIndex":7,"stopSequence":8,"vertexType":"TRANSIT"},"transitLeg":false},{"agencyId":"SMRT","agencyName":"SMRT Corporation","agencyTimeZoneOffset":28800000,"agencyUrl":"http:\/\/www.smrt.com.sg\/","arrivalDelay":0,"departureDelay":0,"distance":6670.5005890411,"duration":683,"endTime":1701081246000,"from":{"arrival":1701080537000,"departure":1701080563000,"lat":1.3125291106,"lon":103.838036234,"name":"NEWTON MRT STATION","stopCode":"NS21","stopId":"FERRY:NS21","stopIndex":7,"stopSequence":8,"vertexType":"TRANSIT"},"interlineWithPreviousLeg":false,"intermediateStops":[{"arrival":1701080655000,"departure":1701080685000,"lat":1.3204583552,"lon":103.843842645,"name":"NOVENA MRT STATION","stopCode":"NS20","stopId":"FERRY:NS20","stopIndex":8,"stopSequence":9,"vertexType":"TRANSIT"},{"arrival":1701080802000,"departure":1701080832000,"lat":1.3324628752,"lon":103.84758934,"name":"TOA PAYOH MRT STATION","stopCode":"NS19","stopId":"FERRY:NS19","stopIndex":9,"stopSequence":10,"vertexType":"TRANSIT"},{"arrival":1701080903000,"departure":1701080933000,"lat":1.340158424,"lon":103.846746851,"name":"BRADDELL MRT STATION","stopCode":"NS18","stopId":"FERRY:NS18","stopIndex":10,"stopSequence":11,"vertexType":"TRANSIT"},{"arrival":1701081028000,"departure":1701081058000,"lat":1.3508268528,"lon":103.848180082,"name":"BISHAN MRT STATION","stopCode":"NS17","stopId":"FERRY:NS17","stopIndex":11,"stopSequence":12,"vertexType":"TRANSIT"}],"legGeometry":{"length":235,"points":"_j_G{zwxReCiEy@iAaAgAw@u@w@q@_Am@}@g@_Bm@aAWeAS}ASaCYo@Mw@U{@[OGMGOIOIMIMIOKMIYW[W[W}GaGCCgFoEk@e@WSMK[U]U]SMI]SOIOG]Q_@QOGOGa@OOG_@Ma@Ma@KOEc@KOEc@Ia@Ic@Ga@GWC]EuEa@u@Gc@GOCi@I[Gc@Ga@Ka@Is@QiD}@a@Ka@Ic@IUE]EQCQAQAQAQAQAQ?Q?Q@Q?Q@Q@Q@Q@Q@QBc@DmEl@c@FcDb@{ATk@Jm@N}@Vo@VeAd@cBp@y@T}@PcAJ_ABcAAs@Eu@Ke@Is@Q_A[m@Qm@Ku@IwCKc@AgDIc@AY?mD?u@?u@@iFHu@@c@?e@Ac@AQAc@COCc@Ec@EeRgCuL_B??mDe@aGw@QCOCQCQEGAIAOEQCOEQEOEQGOEOGOGMECAOGMGOIOGIEEC}DkBMGOGOIOGMIOGOIOGMIOIOIA?MGcT_LOIMIOG??OIOGOGOIOGKECAOGOGOEQGMEA?OEQEQEOEQCQCQCQAQCOAQAQAS?QAQ?Q@Q?Q@Q?Q@QBQ@OBQBQBQBODQDQDODODKDE@OFOFOFOFOFOHOFGDEBc`@vQ"},"mode":"SUBWAY","numIntermediateStops":5,"pathway":false,"realTime":false,"rentedBike":false,"route":"NS","routeId":"NS","routeLongName":"NORTH SOUTH LINE","routeShortName":"NS","routeType":1,"serviceDate":"20231127","startTime":1701080563000,"steps":[],"to":{"arrival":1701081246000,"departure":1701081246000,"lat":1.3698565752,"lon":103.849580276,"name":"ANG MO KIO MRT STATION","stopCode":"NS16","stopId":"FERRY:NS16","stopIndex":12,"stopSequence":13,"vertexType":"TRANSIT"},"transitLeg":true,"tripId":"NS-1-4013"},{"agencyTimeZoneOffset":28800000,"arrivalDelay":0,"departureDelay":0,"distance":114.1759062005,"duration":10,"endTime":1701081256000,"from":{"arrival":1701081246000,"departure":1701081246000,"lat":1.3698565752,"lon":103.849580276,"name":"ANG MO KIO MRT STATION","stopCode":"NS16","stopId":"FERRY:NS16","stopIndex":12,"stopSequence":13,"vertexType":"TRANSIT"},"interlineWithPreviousLeg":false,"intermediateStops":[],"legGeometry":{"length":2,"points":"qpjG{bzxR`@jE"},"mode":"WALK","numIntermediateStops":1,"pathway":false,"realTime":false,"rentedBike":false,"route":"","startTime":1701081246000,"steps":[{"absoluteDirection":"WEST","area":false,"bogusName":false,"distance":114.1759062005,"elevation":[],"lat":1.3698565752,"lon":103.849580276,"relativeDirection":"DEPART","stayOn":false,"streetName":"Transfer"}],"to":{"arrival":1701081256000,"departure":1701081257000,"lat":1.3696876991,"lon":103.848567162,"name":"ANG MO KIO INT","vertexType":"NORMAL"},"transitLeg":false},{"agencyTimeZoneOffset":28800000,"arrivalDelay":0,"departureDelay":0,"distance":56.195,"duration":45,"endTime":1701081302000,"from":{"arrival":1701081256000,"departure":1701081257000,"lat":1.369687699,"lon":103.848567162,"name":"path","vertexType":"NORMAL"},"interlineWithPreviousLeg":false,"intermediateStops":[],"legGeometry":{"length":4,"points":"oojGo|yxR^Dz@LD?"},"mode":"WALK","numIntermediateStops":1,"pathway":false,"realTime":false,"rentedBike":false,"route":"","startTime":1701081257000,"steps":[{"absoluteDirection":"SOUTH","area":false,"bogusName":true,"distance":56.195,"elevation":[],"lat":1.369687699,"lon":103.848567162,"relativeDirection":"LEFT","stayOn":false,"streetName":"path"}],"to":{"arrival":1701081302000,"lat":1.369193179,"lon":103.8484647756,"name":"Destination","orig":"","vertexType":"NORMAL"},"transitLeg":false}],"startTime":1701079965000,"tooSloped":false,"transfers":1,"transitTime":1161,"waitingTime":28,"walkDistance":151.1222406,"walkLimitExceeded":false,"walkTime":148},{"duration":1475,"elevationGained":0,"elevationLost":0,"endTime":1701081497000,"fare":"1.60","legs":[{"agencyTimeZoneOffset":28800000,"arrivalDelay":0,"departureDelay":0,"distance":94.881,"duration":78,"endTime":1701080100000,"from":{"departure":1701080022000,"lat":1.2929650415,"lon":103.8593439689,"name":"Origin","orig":"","vertexType":"NORMAL"},"interlineWithPreviousLeg":false,"intermediateStops":[],"legGeometry":{"length":5,"points":"ct{Fuc|xRCSr@yALYCM"},"mode":"WALK","numIntermediateStops":1,"pathway":false,"realTime":false,"rentedBike":false,"route":"","startTime":1701080022000,"steps":[{"absoluteDirection":"EAST","area":false,"bogusName":false,"distance":94.881,"elevation":[],"lat":1.293625,"lon":103.859952,"relativeDirection":"DEPART","stayOn":false,"streetName":"path"}],"to":{"arrival":1701080100000,"departure":1701080101000,"lat":1.293338368,"lon":103.86070849,"name":"path","vertexType":"NORMAL"},"transitLeg":false},{"agencyTimeZoneOffset":28800000,"arrivalDelay":0,"departureDelay":0,"distance":48.0264371983,"duration":10,"endTime":1701080111000,"from":{"arrival":1701080100000,"departure":1701080101000,"lat":1.2933383678,"lon":103.860708491,"name":"PROMENADE STN EXIT B","vertexType":"NORMAL"},"interlineWithPreviousLeg":false,"intermediateStops":[],"legGeometry":{"length":2,"points":"ir{Fkh|xRZqA"},"mode":"WALK","numIntermediateStops":1,"pathway":false,"realTime":false,"rentedBike":false,"route":"","startTime":1701080101000,"steps":[{"absoluteDirection":"EAST","area":false,"bogusName":false,"distance":48.0264371983,"elevation":[],"lat":1.2933383678,"lon":103.860708491,"relativeDirection":"SLIGHTLY_RIGHT","stayOn":false,"streetName":"Transfer"}],"to":{"arrival":1701080111000,"departure":1701080111000,"lat":1.2931977531,"lon":103.861116976,"name":"PROMENADE MRT STATION","stopCode":"CC4","stopId":"FERRY:CC4","stopIndex":24,"stopSequence":26,"vertexType":"TRANSIT"},"transitLeg":false},{"agencyId":"SMRT","agencyName":"SMRT Corporation","agencyTimeZoneOffset":28800000,"agencyUrl":"http:\/\/www.smrt.com.sg\/","arrivalDelay":0,"departureDelay":0,"distance":1793.3048742291,"duration":220,"endTime":1701080331000,"from":{"arrival":1701080111000,"departure":1701080111000,"lat":1.2931977531,"lon":103.861116976,"name":"PROMENADE MRT STATION","stopCode":"CC4","stopId":"FERRY:CC4","stopIndex":24,"stopSequence":26,"vertexType":"TRANSIT"},"interlineWithPreviousLeg":false,"intermediateStops":[{"arrival":1701080176000,"departure":1701080206000,"lat":1.2931861923,"lon":103.855534707,"name":"ESPLANADE MRT STATION","stopCode":"CC3","stopId":"FERRY:CC3","stopIndex":25,"stopSequence":27,"vertexType":"TRANSIT"},{"arrival":1701080261000,"departure":1701080291000,"lat":1.296812442,"lon":103.850894978,"name":"BRAS BASAH MRT STATION","stopCode":"CC2","stopId":"FERRY:CC2","stopIndex":26,"stopSequence":28,"vertexType":"TRANSIT"}],"legGeometry":{"length":30,"points":"mq{Fkk|xRjB@n@Dj@Lt@Zt@r@^l@Tv@D~@KxAM~AQ`A[fAqBzDeAtCuB~DA@gAvBo@bAaGdIyAzBiAvBsBlCg@n@]b@}ApBmAlBo@zBs@xCcBfH"},"mode":"SUBWAY","numIntermediateStops":3,"pathway":false,"realTime":false,"rentedBike":false,"route":"CC","routeId":"CC","routeLongName":"CIRCLE LINE","routeShortName":"CC","routeType":1,"serviceDate":"20231127","startTime":1701080111000,"steps":[],"to":{"arrival":1701080331000,"departure":1701080331000,"lat":1.2987970718,"lon":103.846678821,"name":"DHOBY GHAUT MRT STATION","stopCode":"CC1","stopId":"FERRY:CC1","stopIndex":27,"stopSequence":29,"vertexType":"TRANSIT"},"transitLeg":true,"tripId":"CC-2-3152"},{"agencyTimeZoneOffset":28800000,"arrivalDelay":0,"departureDelay":0,"distance":62.9699897774,"duration":20,"endTime":1701080351000,"from":{"arrival":1701080331000,"departure":1701080331000,"lat":1.2987970718,"lon":103.846678821,"name":"DHOBY GHAUT MRT STATION","stopCode":"CC1","stopId":"FERRY:CC1","stopIndex":27,"stopSequence":29,"vertexType":"TRANSIT"},"interlineWithPreviousLeg":false,"intermediateStops":[],"legGeometry":{"length":2,"points":"mt|FupyxRTlB"},"mode":"WALK","numIntermediateStops":1,"pathway":false,"realTime":false,"rentedBike":false,"route":"","startTime":1701080331000,"steps":[{"absoluteDirection":"WEST","area":false,"bogusName":false,"distance":62.9699897774,"elevation":[],"lat":1.2987970718,"lon":103.846678821,"relativeDirection":"DEPART","stayOn":false,"streetName":"Transfer"}],"to":{"arrival":1701080351000,"departure":1701080425000,"lat":1.2986887229,"lon":103.846122838,"name":"DHOBY GHAUT MRT STATION","stopCode":"NS24","stopId":"FERRY:NS24","stopIndex":4,"stopSequence":5,"vertexType":"TRANSIT"},"transitLeg":false},{"agencyId":"SMRT","agencyName":"SMRT Corporation","agencyTimeZoneOffset":28800000,"agencyUrl":"http:\/\/www.smrt.com.sg\/","arrivalDelay":0,"departureDelay":0,"distance":9488.0467964199,"duration":1016,"endTime":1701081441000,"from":{"arrival":1701080351000,"departure":1701080425000,"lat":1.2986887229,"lon":103.846122838,"name":"DHOBY GHAUT MRT STATION","stopCode":"NS24","stopId":"FERRY:NS24","stopIndex":4,"stopSequence":5,"vertexType":"TRANSIT"},"interlineWithPreviousLeg":false,"intermediateStops":[{"arrival":1701080489000,"departure":1701080519000,"lat":1.300213166,"lon":103.839221465,"name":"SOMERSET MRT STATION","stopCode":"NS23","stopId":"FERRY:NS23","stopIndex":5,"stopSequence":6,"vertexType":"TRANSIT"},{"arrival":1701080601000,"departure":1701080631000,"lat":1.3038150312,"lon":103.832272194,"name":"ORCHARD MRT STATION","stopCode":"NS22","stopId":"FERRY:NS22","stopIndex":6,"stopSequence":7,"vertexType":"TRANSIT"},{"arrival":1701080728000,"departure":1701080758000,"lat":1.3125291106,"lon":103.838036234,"name":"NEWTON MRT STATION","stopCode":"NS21","stopId":"FERRY:NS21","stopIndex":7,"stopSequence":8,"vertexType":"TRANSIT"},{"arrival":1701080850000,"departure":1701080880000,"lat":1.3204583552,"lon":103.843842645,"name":"NOVENA MRT STATION","stopCode":"NS20","stopId":"FERRY:NS20","stopIndex":8,"stopSequence":9,"vertexType":"TRANSIT"},{"arrival":1701080997000,"departure":1701081027000,"lat":1.3324628752,"lon":103.84758934,"name":"TOA PAYOH MRT STATION","stopCode":"NS19","stopId":"FERRY:NS19","stopIndex":9,"stopSequence":10,"vertexType":"TRANSIT"},{"arrival":1701081098000,"departure":1701081128000,"lat":1.340158424,"lon":103.846746851,"name":"BRADDELL MRT STATION","stopCode":"NS18","stopId":"FERRY:NS18","stopIndex":10,"stopSequence":11,"vertexType":"TRANSIT"},{"arrival":1701081223000,"departure":1701081253000,"lat":1.3508268528,"lon":103.848180082,"name":"BISHAN MRT STATION","stopCode":"NS17","stopId":"FERRY:NS17","stopIndex":11,"stopSequence":12,"vertexType":"TRANSIT"}],"legGeometry":{"length":322,"points":"qs|FemyxR?@iA|EIh@SrAIh@Gn@{@pIm@xFmA~IAJc@|CWvAYzAIn@Ir@Al@?j@Dr@^jDFt@@n@An@Ch@Gf@Mn@Ql@Sd@OZWb@W\\[\\YV_@X[R]Pa@Nw@Vs@N}@Hm@BiCJQ?sCJQ?Q?Q?Q?QAQAQAQCQCOCQCQEOEQE_@O}MwEo@W_@OOGOGOIOGOIMIOIMIMKMIMKMKMKKKMKKMMKKMKMIKKMIOU[]k@_JqOYe@eCiEy@iAaAgAw@u@w@q@_Am@}@g@_Bm@aAWeAS}ASaCYo@Mw@U{@[OGMGOIOIMIMIOKMIYW[W[W}GaGCCgFoEk@e@WSMK[U]U]SMI]SOIOG]Q_@QOGOGa@OOG_@Ma@Ma@KOEc@KOEc@Ia@Ic@Ga@GWC]EuEa@u@Gc@GOCi@I[Gc@Ga@Ka@Is@QiD}@a@Ka@Ic@IUE]EQCQAQAQAQAQAQ?Q?Q@Q?Q@Q@Q@Q@Q@QBc@DmEl@c@FcDb@{ATk@Jm@N}@Vo@VeAd@cBp@y@T}@PcAJ_ABcAAs@Eu@Ke@Is@Q_A[m@Qm@Ku@IwCKc@AgDIc@AY?mD?u@?u@@iFHu@@c@?e@Ac@AQAc@COCc@Ec@EeRgCuL_B??mDe@aGw@QCOCQCQEGAIAOEQCOEQEOEQGOEOGOGMECAOGMGOIOGIEEC}DkBMGOGOIOGMIOGOIOGMIOIOIA?MGcT_LOIMIOG??OIOGOGOIOGKECAOGOGOEQGMEA?OEQEQEOEQCQCQCQAQCOAQAQAS?QAQ?Q@Q?Q@Q?Q@QBQ@OBQBQBQBODQDQDODODKDE@OFOFOFOFOFOHOFGDEBc`@vQ"},"mode":"SUBWAY","numIntermediateStops":8,"pathway":false,"realTime":false,"rentedBike":false,"route":"NS","routeId":"NS","routeLongName":"NORTH SOUTH LINE","routeShortName":"NS","routeType":1,"serviceDate":"20231127","startTime":1701080425000,"steps":[],"to":{"arrival":1701081441000,"departure":1701081441000,"lat":1.3698565752,"lon":103.849580276,"name":"ANG MO KIO MRT STATION","stopCode":"NS16","stopId":"FERRY:NS16","stopIndex":12,"stopSequence":13,"vertexType":"TRANSIT"},"transitLeg":true,"tripId":"NS-1-4014"},{"agencyTimeZoneOffset":28800000,"arrivalDelay":0,"departureDelay":0,"distance":114.1759062005,"duration":10,"endTime":1701081451000,"from":{"arrival":1701081441000,"departure":1701081441000,"lat":1.3698565752,"lon":103.849580276,"name":"ANG MO KIO MRT STATION","stopCode":"NS16","stopId":"FERRY:NS16","stopIndex":12,"stopSequence":13,"vertexType":"TRANSIT"},"interlineWithPreviousLeg":false,"intermediateStops":[],"legGeometry":{"length":2,"points":"qpjG{bzxR`@jE"},"mode":"WALK","numIntermediateStops":1,"pathway":false,"realTime":false,"rentedBike":false,"route":"","startTime":1701081441000,"steps":[{"absoluteDirection":"WEST","area":false,"bogusName":false,"distance":114.1759062005,"elevation":[],"lat":1.3698565752,"lon":103.849580276,"relativeDirection":"DEPART","stayOn":false,"streetName":"Transfer"}],"to":{"arrival":1701081451000,"departure":1701081452000,"lat":1.3696876991,"lon":103.848567162,"name":"ANG MO KIO INT","vertexType":"NORMAL"},"transitLeg":false},{"agencyTimeZoneOffset":28800000,"arrivalDelay":0,"departureDelay":0,"distance":56.195,"duration":45,"endTime":1701081497000,"from":{"arrival":1701081451000,"departure":1701081452000,"lat":1.369687699,"lon":103.848567162,"name":"path","vertexType":"NORMAL"},"interlineWithPreviousLeg":false,"intermediateStops":[],"legGeometry":{"length":4,"points":"oojGo|yxR^Dz@LD?"},"mode":"WALK","numIntermediateStops":1,"pathway":false,"realTime":false,"rentedBike":false,"route":"","startTime":1701081452000,"steps":[{"absoluteDirection":"SOUTH","area":false,"bogusName":true,"distance":56.195,"elevation":[],"lat":1.369687699,"lon":103.848567162,"relativeDirection":"LEFT","stayOn":false,"streetName":"path"}],"to":{"arrival":1701081497000,"lat":1.369193179,"lon":103.8484647756,"name":"Destination","orig":"","vertexType":"NORMAL"},"transitLeg":false}],"startTime":1701080022000,"tooSloped":false,"transfers":1,"transitTime":1236,"waitingTime":76,"walkDistance":151.1222406,"walkLimitExceeded":false,"walkTime":163},{"duration":2902,"elevationGained":0,"elevationLost":0,"endTime":1701083084000,"fare":"1.72","legs":[{"agencyTimeZoneOffset":28800000,"arrivalDelay":0,"departureDelay":0,"distance":94.881,"duration":78,"endTime":1701080260000,"from":{"departure":1701080182000,"lat":1.2929650415,"lon":103.8593439689,"name":"Origin","orig":"","vertexType":"NORMAL"},"interlineWithPreviousLeg":false,"intermediateStops":[],"legGeometry":{"length":5,"points":"ct{Fuc|xRCSr@yALYCM"},"mode":"WALK","numIntermediateStops":1,"pathway":false,"realTime":false,"rentedBike":false,"route":"","startTime":1701080182000,"steps":[{"absoluteDirection":"EAST","area":false,"bogusName":false,"distance":94.881,"elevation":[],"lat":1.293625,"lon":103.859952,"relativeDirection":"DEPART","stayOn":false,"streetName":"path"}],"to":{"arrival":1701080260000,"departure":1701080261000,"lat":1.2933383678,"lon":103.860708491,"name":"PROMENADE STN EXIT B","stopCode":"02169","stopId":"FERRY:02169","stopIndex":35,"stopSequence":36,"vertexType":"TRANSIT"},"transitLeg":false},{"agencyId":"SBST","agencyName":"SBS Transit","agencyTimeZoneOffset":28800000,"agencyUrl":"http:\/\/www.sbstransit.com.sg\/","arrivalDelay":0,"departureDelay":0,"distance":7186.0502438234,"duration":1866,"endTime":1701082127000,"from":{"arrival":1701080260000,"departure":1701080261000,"lat":1.2933383678,"lon":103.860708491,"name":"PROMENADE STN EXIT B","stopCode":"02169","stopId":"FERRY:02169","stopIndex":35,"stopSequence":36,"vertexType":"TRANSIT"},"interlineWithPreviousLeg":false,"intermediateStops":[{"arrival":1701080333000,"departure":1701080363000,"lat":1.295765716,"lon":103.859338146,"name":"SUNTEC TWR TWO","stopCode":"02141","stopId":"FERRY:02141","stopIndex":36,"stopSequence":37,"vertexType":"TRANSIT"},{"arrival":1701080435000,"departure":1701080465000,"lat":1.299198261,"lon":103.858645183,"name":"OPP THE GATEWAY","stopCode":"01511","stopId":"FERRY:01511","stopIndex":37,"stopSequence":38,"vertexType":"TRANSIT"},{"arrival":1701080508000,"departure":1701080538000,"lat":1.3008830444,"lon":103.860660982,"name":"OPP PLAZA PARKROYAL","stopCode":"01521","stopId":"FERRY:01521","stopIndex":38,"stopSequence":39,"vertexType":"TRANSIT"},{"arrival":1701080596000,"departure":1701080626000,"lat":1.30325,"lon":103.861083056,"name":"OPP TEXTILE CTR","stopCode":"01231","stopId":"FERRY:01231","stopIndex":39,"stopSequence":40,"vertexType":"TRANSIT"},{"arrival":1701080669000,"departure":1701080699000,"lat":1.3055180352,"lon":103.860544952,"name":"OPP BLK 461","stopCode":"01211","stopId":"FERRY:01211","stopIndex":40,"stopSequence":41,"vertexType":"TRANSIT"},{"arrival":1701080742000,"departure":1701080772000,"lat":1.3070916463,"lon":103.862196952,"name":"LAVENDER STN EXIT B","stopCode":"01311","stopId":"FERRY:01311","stopIndex":41,"stopSequence":42,"vertexType":"TRANSIT"},{"arrival":1701080815000,"departure":1701080845000,"lat":1.3093195226,"lon":103.863546599,"name":"AFT KALLANG RD","stopCode":"07371","stopId":"FERRY:07371","stopIndex":42,"stopSequence":43,"vertexType":"TRANSIT"},{"arrival":1701080932000,"departure":1701080962000,"lat":1.3138089962,"lon":103.863049358,"name":"BENDEMEER STN EXIT A","stopCode":"60011","stopId":"FERRY:60011","stopIndex":43,"stopSequence":44,"vertexType":"TRANSIT"},{"arrival":1701081048000,"departure":1701081078000,"lat":1.3182859609,"lon":103.866698742,"name":"CHUBB S'PORE","stopCode":"60021","stopId":"FERRY:60021","stopIndex":44,"stopSequence":45,"vertexType":"TRANSIT"},{"arrival":1701081150000,"departure":1701081180000,"lat":1.3204097072,"lon":103.870078325,"name":"BEF GEYLANG BAHRU STN","stopCode":"60031","stopId":"FERRY:60031","stopIndex":45,"stopSequence":46,"vertexType":"TRANSIT"},